[
{"name": "Мавзолей В.И. Ленина", "latitude": 55.753605, "longitude": 37.619773, "photoUrl": "https://salik.biz/upload/000/u1/9/6/e441e23b.jpg"},
    {"name": "Государственная Третьяковская галерея", "latitude": 55.741556, "longitude": 37.620028, "photoUrl": "https://7d9e88a8-f178-4098-bea5-48d960920605.selcdn.net/f0b5b504-430f-4289-80df-38a21badffda/-/quality/lighter/-/resize/600x400/"},
    {"name": "Государственная Третьяковская галерея, галерея Новая Третьяковка", "latitude": 55.734719, "longitude": 37.605976, "photoUrl": "https://cdn-st3.rtr-vesti.ru/vh/pictures/b/163/856/8.jpg"},
    {"name": "Оружейная палата", "latitude": 55.749455, "longitude": 37.613473, "photoUrl": "https://caleche.org/img/guru-2021/4582/image_5b0ar5F4z62moN10X.jpg"},
    {"name": "Музей космонавтики", "latitude": 55.82271, "longitude": 37.639743, "photoUrl": "https://i.ytimg.com/vi/UUP6ngqE0oo/0.jpg"},
    {"name": "Выставка Алмазный фонд Гохрана России", "latitude": 55.749593, "longitude": 37.613807, "photoUrl": "https://azb-ex.ru/wp-content/uploads/bfi_thumb/2-pynphcwmhffhpkltt86bbb9h0xaebkbvz52o9prwxc.jpg"},
    {"name": "Государственный музей А. С. Пушкина", "latitude": 55.743575, "longitude": 37.597736, "photoUrl": "https://pravchtenie.ru/upload/resize_cache/iblock/75c/650_251_1821712164bebe8964a3cb4f91f48bb72/75ce089836963290f779b8bb919986ad.jpg"},
    {"name": "Государственный Дарвиновский музей", "latitude": 55.690797, "longitude": 37.561547, "photoUrl": "https://cloudstatic.eva.ru/eva/200000-210000/200449/channel/2079573259576121.jpg"},
    {"name": "Музей-Диорама Царь-Макет", "latitude": 55.817173, "longitude": 37.655321, "photoUrl": "https://60.img.avito.st/image/1/1.gQdTL7a5Le5XhM_vXR2-P0KNL-jjhiXk5Yo3Xu1sLOw.RGtJbb2jhE01LaEQKCtvWj-NSOAiDKLEmhAXhuYfLVQ"},
    {"name": "Музей \"Московский транспорт\"", "latitude": 55.742534, "longitude": 37.67812, "photoUrl": "https://autogear.ru/misc/i/thumb/a/2/9/6/5/1/9/1/2965191.jpg"},
    {"name": "Исторический парк Россия – моя история", "latitude": 55.834244, "longitude": 37.626269, "photoUrl": "https://ctnews.ru/storage/posts/Nov2022/B6EkngeDvKmAomX-medium.webp"},
{"name": "Музей Холодной войны в Бункер-42 на Таганке", "latitude": 55.741754, "longitude": 37.649256, "photoUrl": "https://www.bunkermoscow.ru/wp-content/uploads/2022/10/%D1%8227-700x436.jpg"},
{"name": "Государственный музей Владимира Высоцкого", "latitude": 55.744448, "longitude": 37.65179, "photoUrl": "https://cdn.worldota.net/t/640x400/content/42/7a/427a94350020ff8ba463bf1425103b47cfe52c73.jpeg"},
{"name": "Музей Михаила Афанасьевича Булгакова", "latitude": 55.766996, "longitude": 37.59388, "photoUrl": "https://avatars.mds.yandex.net/get-sprav-products/5632604/2a00000185882f0de725acb97c59990f42c6/M_height"},
{"name": "Музей автомобильных историй В. Попова", "latitude": 55.83201, "longitude": 37.518757, "photoUrl": "https://avatars.mds.yandex.net/get-altay/1909414/2a0000016ae32790eb19c25ec426fe29a9af/XXL_height"},
{"name": "Ломаковский музей старинных автомобилей и мотоциклов", "latitude": 55.67473, "longitude": 37.771688, "photoUrl": "https://vibirai.ru/image/1451136.r379x254.jpg?1521317044"},
{"name": "Московский музей современного искусства", "latitude": 55.767011, "longitude": 37.614227, "photoUrl": "https://img1.advisor.travel/280x180px-Moscow_Museum_of_Modern_Art_4.jpg"},
{"name": "Государственный музей истории ГУЛАГа", "latitude": 55.777088, "longitude": 37.613561, "photoUrl": "https://www.prodalit.ru/pub/img/posts/f974c8ae-dd29-4af8-9442-83caee78f695/preview_sm.jpg"},
{"name": "Музей Москвы", "latitude": 55.73639, "longitude": 37.593596, "photoUrl": "https://culter.ru/wp-content/uploads/sites/6/18_2.jpg"},
{"name": "Научно-исследовательский музей архитектуры имени А.В. Щусева", "latitude": 55.752481, "longitude": 37.607368, "photoUrl": "https://ratnik.tv/upload/resize_cache/iblock/b9e/537_240_1/b9e9d4e398158bfebc0b5a0a29d88533.jpg"},
{"name": "Государственный музей Востока", "latitude": 55.756432, "longitude": 37.599815, "photoUrl": "https://upload.wikimedia.org/wikipedia/commons/thumb/4/4d/East_nations_art_museum_in_Moscow_shot_01.jpg/500px-East_nations_art_museum_in_Moscow_shot_01.jpg"},
{"name": "Музей Победы", "latitude": 55.730588, "longitude": 37.504063, "photoUrl": "https://gorduma.msuchita.ru/uploads/duma/news/2022/09/thumbnail/JtWpxZtwL0U-c320x240.jpg"},
{"name": "Музей Вооружённых Сил ", "latitude": 55.784916, "longitude": 37.617124, "photoUrl": "https://sun9-54.userapi.com/impg/-Mfx4vd5cGxeUWiT2EMdPBli2q1R-cui6S0lJA/UpeXH6dDWio.jpg?size=604x378&quality=95&sign=a5a22587df128118cffe0bfcec19e57a&c_uniq_tag=FJ1n6Dl_RuJ75DyytR7PtQAGlC1hzZ38ECb7rF8bnj0&type=album"},
{"name": "Государственный музей обороны Москвы", "latitude": 55.676652, "longitude": 37.467568, "photoUrl": "https://www.cultradio.ru/videohosting_pictures/b/135/615/1.jpg"},
{"name": "Музей-панорама Бородинская битва", "latitude": 55.738752, "longitude": 37.523187, "photoUrl": "https://moskvaved.ru/upload/webp/resize_cache/3c0/300_250_1/y1n9j1dizuaa1i4xs02tqkdnio7ogc4f.webp"},
    {"name": "Музей Отечественной войны 1812 года", "latitude": 55.756234, "longitude": 37.618696, "photoUrl": "https://avatars.mds.yandex.net/get-altay/1678797/2a00000169ea725c3d643fe829804828fc9b/M_height"},
    {"name": "Центр современного искусства Винзавод", "latitude": 55.755556, "longitude": 37.664613, "photoUrl": "http://cultobzor.ru/wp-content/uploads/2020/10/02-7-300x200.jpg"},
    {"name": "Павильон Макет Москвы", "latitude": 55.83439, "longitude": 37.630086, "photoUrl": "https://sun1-55.userapi.com/impg/KKQ9UXTWH2pbEH_wsKILug8d4lWIGblnuKvgrQ/a06kdLmpG1M.jpg?size=604x403&quality=96&sign=e8663a1e62c5f9441fadf4db4a6229d0&c_uniq_tag=OgC2SEIXALolqFYvtXuD_nR743gEqmwvLRekM4wDRaw&type=album"},
    {"name": "Центр творческих индустрий Фабрика", "latitude": 55.779214, "longitude": 37.689679, "photoUrl": "https://i.pinimg.com/236x/96/60/e7/9660e77651881d6f2e6345c47579e1c4.jpg?nii=t"},
    {"name": "Культурный центр ЗИЛ", "latitude": 55.714571, "longitude": 37.657863, "photoUrl": "https://gazeta-danilovsky-vestnik.ru/wp-content/uploads/2022/08/62bb0c1c82682c42ddcc5329-300x199.jpg"},
    {"name": "ГЭС-2", "latitude": 55.742751, "longitude": 37.612732, "photoUrl": "https://backend.artreview.com/wp-content/uploads/2022/02/15-Gleb-Leonov-2021-600x400.jpg"},
    {"name": "Музей Собаки", "latitude": 55.716696, "longitude": 37.595652, "photoUrl": "https://teen.szd.online/media/zoo/images/.jpg-176_5c7cac0e2b45445a004de8ab7837fdd1.jpg"},
    {"name": "Еврейский музей и центр толерантности", "latitude": 55.789271, "longitude": 37.607867, "photoUrl": "https://lechaim.ru/wp-content/uploads/2016/11/jewish_museum_2.jpg"},
    {"name": "Музей коломенской пастилы", "latitude": 55.104594, "longitude": 38.76986, "photoUrl": "https://kolomna-ekskursii.ru/wp-content/uploads/2023/03/muzej-pastily-glavnaja-768x432.jpg"},
    {"name": "Музей \"Калачная\"", "latitude": 55.105801, "longitude": 38.763801, "photoUrl": "https://tttravel.ru/wp-content/uploads/2021/04/full_oodcfkcr.jpg"},
    {"name": "Музейная Фабрика Пастилы", "latitude": 55.102318, "longitude": 38.770315, "photoUrl": "https://serpuhov.bezformata.com/content/image475309448.jpg"},
    {"name": "Музей-резиденция Арткоммуналка. Ерофеев и другие", "latitude": 55.100945, "longitude": 38.756741, "photoUrl": "https://img.riamediabank.ru/images/vol4%2Fmedia%2Foriginal%2F0000%2F0603%2F29%2F000006032981_0%3A0%3A0%3A0_550x550_80_0_1_ria-6032981-tn_b56a0e943ecd20fd23a200a6e7932762.jpg"},
    {"name": "Музей Любимой Игрушки", "latitude": 55.100945, "longitude": 38.756741, "photoUrl": "https://caleche.org/img/guru-2021/4445/image_9w2v7gb9VuajEoXEdw.jpg"},
    {"name": "Душистыя радости", "latitude": 55.105534, "longitude": 38.763729, "photoUrl": "http://deladobra.ru/wp-content/uploads/2017/12/manufaktura-dushistyya-radosti.png"},
    {"name": "Тайны Коломенской медовуши", "latitude": 55.102541, "longitude": 38.752147, "photoUrl": "https://k-versta.ru/wp-content/uploads/2018/03/vih2-1024x626.jpg"},
    {"name": "Музей Сергиевская кухмистерская и ландринная лавка", "latitude": 56.312235, "longitude": 38.138408, "photoUrl": "https://s16.stc.all.kpcdn.net/russia/wp-content/uploads/2021/05/zolotkolzgor-sergiev-posad-kuns-2048-530x298.jpg"},
    {"name": "Музей советского детства", "latitude": 56.312261, "longitude": 38.138397, "photoUrl": "https://media-cdn.tripadvisor.com/media/photo-s/15/49/21/3b/getlstd-property-photo.jpg"},
    {"name": "Музей современного искусства Кибер Зона", "latitude": 56.339176, "longitude": 38.126295, "photoUrl": "https://i.ytimg.com/vi/M9K2RsRH_54/mqdefault.jpg"},
    {"name": "Музейный комплекс \"Конный двор\"", "latitude": 56.313635, "longitude": 38.133183, "photoUrl": "https://experience-ireland.s3.amazonaws.com/thumbs2/c69d27bc-9cd0-11e9-af46-025c4c6e7a28.384x289.jpg"},
    {"name": "Музей Арт-Макет", "latitude": 56.312128, "longitude": 38.137571, "photoUrl": "https://travel.riamo.ru/upload/files/g/Y/820/gYuzU303Pyhw8qi0B5gsOgz876vrhMzZehNwHUmmcYcYkfvpowUt3miXSRudiO0zyCC3JRPHPoXTKdbbvOCoDADpG1NhKHu.jpeg"},
    {"name": "Музей впечатлений", "latitude": 56.332259, "longitude": 38.132504, "photoUrl": "https://vashdom-72.ru/wp-content/uploads/2021/07/muzej-vpechatlenij-150x150.jpg"},
    {"name": "Музей Назад в СССР", "latitude": 55.7306, "longitude": 36.85244, "photoUrl": "https://odin.ru/img/2020/12/4_zvenigorod_turisticheskijj.jpg"},
    {"name": "Музей истории русского десерта", "latitude": 55.731011, "longitude": 36.848045, "photoUrl": "https://usetobook.com/files/objectpictures/44/4a/af/5184132639851_570.jpg"},
    {"name": "Музей Лего LEts Go", "latitude": 55.733327, "longitude": 36.824724, "photoUrl": "https://ruzaria.ru/wp-content/uploads/2022/12/1a96a3b1-f036-4d61-a958-7511336aac22-720x540.jpg"},
{"name": "Музей Аэрофлота", "latitude": 55.982753, "longitude": 37.407782, "photoUrl": "http://moscowalk.ru/images/thumbnails/images/2014/museum/Aeroflot_Museum/Aeroflot_Museum31-fit-524x352.jpg"},
    {"name": "Химкинская картинная галерея им. С.Н. Горшина", "latitude": 55.889104, "longitude": 37.445551, "photoUrl": "https://himki.bezformata.com/content/image308185151.jpg"},
    {"name": "Дом-музей Николая Седнина", "latitude": 55.970945, "longitude": 37.315202, "photoUrl": "https://i0.wp.com/lit-collider.ru/wp-content/uploads/2021/05/polveka-1-scaled.jpg?resize=330%2C240&ssl=1"},
    {"name": "Мытищинский историко-художественный музей", "latitude": 55.91131, "longitude": 37.735419, "photoUrl": "https://sun9-3.userapi.com/impf/c845322/v845322314/11f7b0/E37ZFCZtqjg.jpg?size=750x486&quality=96&sign=07b208ebdddf07e7bb352001cc857b0b&c_uniq_tag=TZqP5AeowiQvQd27UlDGgxc7_N9U0CS0LbdPjVjdynI&type=album"},
    {"name": "МУК Музейно-выставочный комплекс", "latitude": 55.676853, "longitude": 37.89433, "photoUrl": "https://hitech24.pro/uploads/posts/2023-10/thumbs/1698469130_hitech24-pro-p-lyuberetskii-dom-kulturi-foto-zala-78.jpg"},
    {"name": "Дом-Музей Чайковского П.И.", "latitude": 56.328918, "longitude": 36.74743, "photoUrl": "https://extraguide.ru/images/t/3012981d75964a0775ef09735f6673b7fe6841c3.jpg"},
    {"name": "Клинское Подворье", "latitude": 56.337918, "longitude": 36.721691, "photoUrl": "https://i.siteapi.org/NxdBsZ-TBpv0v3fEtsSOpVicvCM=/0x0:600x400/ce27ecea37eb41a.s2.siteapi.org/img/qjgiivpxq8000wwo4cocg8wgs88k8s"},
    {"name": "Музей Аркадия Гайдара", "latitude": 56.336707, "longitude": 36.724668, "photoUrl": "https://47140.ru/images/cache/dca1277b21c44ef84cf8e2aae00f6908_w255_h190_cp.webp"},
    {"name": "музей Героев-панфиловцев", "latitude": 55.985072, "longitude": 36.017115, "photoUrl": "https://sun9-26.userapi.com/impg/u9avntWgFAz9Fb0Fwh-pQhvJ37exaEIt_2t9JQ/RiRhP7tHyt8.jpg?size=604x367&quality=95&sign=2932976506214157210ca459bfc732ba&c_uniq_tag=i-PWI2GEi8W21KI4gtPM0hYVPLvGZeElEGLAQ-ABFko&type=album"},
    {"name": "Ярополецкий народный краеведческий музей", "latitude": 56.130489, "longitude": 35.823193, "photoUrl": "https://susanintop.com/wp-content/uploads/2019/01/vol6_1-1-769x492.jpg"},
    {"name": "Интерактивный музей имени Героев-панфиловцев", "latitude": 55.981099, "longitude": 36.03506, "photoUrl": "https://avatars.mds.yandex.net/get-altay/1879929/2a0000016aedb8edb9937dfbfd1091bb0311/L"},
    {"name": "Музей печати", "latitude": 54.917825, "longitude": 37.424173, "photoUrl": "https://sun9-63.userapi.com/s/v1/ig2/r18tVrAzt5bRxdkyMhZrVhS9pdsoLCN_dOWrckIIGfEZdj0vBSX_klBz_MPdpgqMGYMcFjjT57Hea43rnguHKKHT.jpg?size=200x200&quality=96&crop=0,0,595,595&ava=1"},
    {"name": "Дом-музей П. А. Кропоткина", "latitude": 56.341182, "longitude": 37.521146, "photoUrl": "https://sun9-45.userapi.com/impg/DlCbcEIN6HXHVNokspr9PrIJa_hEstVofSj7uQ/JbFBjb_k4KM.jpg?size=604x453&quality=96&sign=9b6f884932b067bef5ed81e0d156f6e9&c_uniq_tag=7SVebj15AwI5cR1t0iK6oes--rxsRFi2ZpEJ1TdjPx4&type=album"},
    {"name": "Музей Дмитровской лягушки", "latitude": 56.344531, "longitude": 37.522309, "photoUrl": "https://media.kupo.la/thumbor/unsafe/preset/orig/images/2020/9/11/1599838556-i%5B1%5D.jpg"},
    {"name": "Дом-музей священномученика Серафима Звездинского, епископа Дмитровского", "latitude": 56.33835, "longitude": 37.528386, "photoUrl": "https://drevo-info.ru/pictures/thumbs/004/018939.jpg"},
    {"name": "Орехово-Зуевский городской историко-краеведческий музей", "latitude": 55.8136, "longitude": 38.999664, "photoUrl": "https://mgo-voi.ru/upload/medialibrary/9d5/r3hhl7vrqk3rm469arrewssn7z690kcr.jpg"},
    {"name": "Дом-музей скульптора А.С. Голубкиной", "latitude": 54.759416, "longitude": 38.881574, "photoUrl": "https://s8.stc.all.kpcdn.net/russia/wp-content/uploads/2021/08/Muzej-skulptora-Golubkinoj-Zarajsk-530x298.jpg"},
    {"name": "Можайский историко-краеведческий музей", "latitude": 55.509646, "longitude": 536.014863, "photoUrl": "http://www.mozhaysk.ru/img/kraeved_.jpg"},
    {"name": "Дом-музей С.В. Герасимова", "latitude": 55.521269, "longitude": 36.010818, "photoUrl": "https://sun9-76.userapi.com/c841335/v841335351/7328d/285bxTgIkW4.jpg"},
    {"name": "Музей боевой славы", "latitude": 55.509672, "longitude": 36.015323, "photoUrl": "https://www.gradyar.ru/wp-content/uploads/2021/02/img-0851-396x246.jpg"},
    {"name": "Музей техники Вадима Задорожного", "latitude": 55.795833, "longitude": 37.296648, "photoUrl": "https://krasnogorsk.bezformata.com/content/image626260008.jpg"},
<<<<<<< HEAD
    {"name": "Музейно-выставочный комплекс Новый Иерусалим", "latitude": 55.926575, "longitude": 36.84521, "photoUrl": "https://volokolamsk.bezformata.com/content/image385332463.jpg"},
=======
    {"name": "Музейно-выставочный комплекс Новый Иерусалим", "latitude": 55.926575, "longitude": 36.84521, "photoUrl": "https://upload.wikimedia.org/wikipedia/commons/thumb/9/96/%D0%A4%D0%B0%D1%81%D0%B0%D0%B4_%D0%BC%D1%83%D0%B7%D0%B5%D1%8F_%22%D0%9D%D0%BE%D0%B2%D1%8B%D0%B9_%D0%98%D0%B5%D1%80%D1%83%D1%81%D0%B0%D0%BB%D0%B8%D0%BC%22.jpg/1200px-%D0%A4%D0%B0%D1%81%D0%B0%D0%B4_%D0%BC%D1%83%D0%B7%D0%B5%D1%8F_%22%D0%9D%D0%BE%D0%B2%D1%8B%D0%B9_%D0%98%D0%B5%D1%80%D1%83%D1%81%D0%B0%D0%BB%D0%B8%D0%BC%22.jpg"},
>>>>>>> origin/anastasia
    {"name": "Центральный музей ВВС", "latitude": 55.832871, "longitude": 38.182575, "photoUrl": "https://sun9-7.userapi.com/impg/G3quzcKU7CEtk7mEAM9EjIy8xkafA1Xg8Xl9og/F2pt33JOX1U.jpg?size=604x259&quality=95&sign=5c036a86bebbd9185417a0d82eff51f7&type=album"},
    {"name": "Музей истории Воздушно-десантных войск", "latitude": 54.633091, "longitude": 39.736315, "photoUrl": "https://83.img.avito.st/image/1/vg25ura_EuTPH-DiyfSWWDIZFO4H2RYWCxkQ4gEfEOQNXw"},
    {"name": "Рязанский государственный областной художественный музей имени И. П. Пожалостина", "latitude": 54.627273, "longitude": 39.751188, "photoUrl": "https://www.gid-podolsk.ru/images/catalog/503_5.jpg"},
{"name": "Мемориальный музей-усадьба академика И.П. Павлова", "latitude": 54.631759, "longitude": 39.727231, "photoUrl": "https://api.gzktour.ru/storage/media/37552/conversions/607ad11eb67cd-medium.jpg"},
    {"name": "Рязанский музей дальней авиации", "latitude": 54.653798, "longitude": 39.588518, "photoUrl": "https://i.ytimg.com/vi/zZoCbBh_OhA/hqdefault.jpg"},
    {"name": "Музей истории рязанского леденца", "latitude": 54.633637, "longitude": 39.743662, "photoUrl": "https://www.molrzn.ru/upload/iblock/84a/U3hwwM9pKHg.jpg"},
    {"name": "Историко-мемориальный зал боевой техники и вооружения ВДВ", "latitude": 54.613783, "longitude": 39.667641, "photoUrl": "https://avatars.mds.yandex.net/get-altay/918124/2a00000161fdc37dfee164841948a2606899/M_height"},
    {"name": "Интерактивный музей сказок Забава", "latitude": 54.627272, "longitude": 39.744274, "photoUrl": "https://media-cdn.tripadvisor.com/media/photo-s/1c/ea/45/cc/caption.jpg"},
    {"name": "Аромат времени", "latitude": 54.629799, "longitude": 39.736157, "photoUrl": "https://avatars.mds.yandex.net/get-altay/3923637/2a0000017643c1a55df9cbaf647d8efa66e7/XL"},
    {"name": "Усадьба Асеевых", "latitude": 52.707157, "longitude": 41.477798, "photoUrl": "https://idei.club/raznoe/uploads/posts/2022-12/thumbs/1671460328_idei-club-p-dvorets-aseevikh-dizain-instagram-20.jpg"},
    {"name": "Тамбовский областной краеведческий музей", "latitude": 52.725193, "longitude": 41.453714, "photoUrl": "https://www.onlinetambov.ru/upload/iblock/9b1/9b12b1906853db010639fc93ba367a1d.JPG?155479685547101"},
    {"name": "Дом-музей Г.В. Чичерина", "latitude": 52.715248, "longitude": 41.460724, "photoUrl": "https://www-vestitambov.cdnvideo.ru/wp-content/uploads/2021/09/muzejchicherina-768x432.jpg"},
    {"name": "Музей истории шоколада Такф", "latitude": 52.723877, "longitude": 41.441458, "photoUrl": "https://autotravel.ru/phalbum/91084/136-s.jpg"},
    {"name": "Музейно-выставочный центр Тамбовской области", "latitude": 52.722934, "longitude": 41.451026, "photoUrl": "https://static.mk.ru/upload/entities/2019/07/03/23/articles/detailPicture/c2/f0/06/8e/d4362f1c3d910c8f018baf967b999390.jpg"},
    {"name": "Тамбовская областная картинная галерея", "latitude": 52.724682, "longitude": 41.456062, "photoUrl": "https://www.onlinetambov.ru/upload/iblock/58d/58d3e0f883cd356438237b3988bf27c0.jpg"},
    {"name": "Мичуринский краеведческий музей", "latitude": 52.894011, "longitude": 40.507838, "photoUrl": "https://fs.znanio.ru/8c0997/8c/1b/2ac0e8ebb89f6f7847e0ed9e369b1f8961.jpg"},
    {"name": "Дом-музей И.В. Мичурина", "latitude": 52.898384, "longitude": 40.525992, "photoUrl": "https://api.gzktour.ru/storage/media/30794/conversions/60242559e225f-medium.jpg"},
    {"name": "Воронежский областной художественный музей имени И.Н. Крамского", "latitude": 51.673911, "longitude": 39.209867, "photoUrl": "https://avatars.dzeninfra.ru/get-zen_doc/271828/pub_65a6b7971d2fcf2899554308_65a6b7b25eaa3246f6196ff8/scale_1200"},
    {"name": "Петровские корабли", "latitude": 51.661738, "longitude": 39.188083, "photoUrl": "https://sun9-53.userapi.com/impg/IOsq1r4_VrdjNi-GcyA1q431_2fxMxlPZkVpIQ/LNY0OiO81Nc.jpg?size=604x403&quality=96&sign=3a721dca2b8f2ad3dfb6ea0943cbe21b&c_uniq_tag=fMPwP4FZLWWaUr_1AD2nsPU4Ui_y5iZW3GoudlrTnaQ&type=album"},
    {"name": "Воронежский областной краеведческий музей", "latitude": 51.666628, "longitude": 39.19356, "photoUrl": "https://museum-vrn.ru/images/cms/thumbs/9799c8258567b66fc1873aa4697de592b97d61ed/4aef87da077d700ee086fe5b784706461_300_auto_jpeg.jpeg"},
    {"name": "Музей природы Воронежского заповедника", "latitude": 51.875599, "longitude": 39.652909, "photoUrl": "https://chrontime.com/public/object/6/6339/_dsc06525.jpg"},
    {"name": "Музей И. А. Бунина", "latitude": 51.679787, "longitude": 39.215283, "photoUrl": "https://avatars.dzeninfra.ru/get-zen_doc/4599736/pub_63da1499c1430002be69c01e_63da1833d5d8f73002db7eb1/scale_1200"},
    {"name": "Музей-диорама «Курская битва»", "latitude": 50.591283, "longitude": 36.5878, "photoUrl": "http://kurskonb.ru/our-booke/bitva/img/kp4_2.jpg"},
    {"name": "Белгородский художественный музей", "latitude": 50.592766, "longitude": 36.586711, "photoUrl": "https://avatars.mds.yandex.net/get-altay/223006/2a0000015b2182c6ded447f100c11f43dfe9/M_height"},
    {"name": "Белгородский государственный историко-краеведческий музей", "latitude": 50.592369, "longitude": 36.588039, "photoUrl": "https://avatars.dzeninfra.ru/get-zen_doc/3986710/pub_603e0b4ba3c2fb477434c2fb_603e10186bbac837cdb103ab/scale_1200"},
    {"name": "Белгородский государственный музей народной культуры", "latitude": 50.594849, "longitude": 36.589697, "photoUrl": "https://www.culture.ru/storage/images/63b34a88-47a3-5725-9383-cb9dd84146af/c_fill,g_center,w_375,h_272/5aed25685e71ca629e1061766c11cbbe.jpeg"},
    {"name": "Белгородский государственный литературный музей", "latitude": 50.597632, "longitude": 36.598884, "photoUrl": "https://lh3.googleusercontent.com/p/AF1QipNs40GhgQ55TU4WgGtvDXLK_sUPihUuQojzQFLa=w600-k"},
    {"name": "Центр народных промыслов", "latitude": 51.281342, "longitude": 37.793572, "photoUrl": "https://i.ytimg.com/vi/6wSFF7NRhfs/mqdefault.jpg"},
    {"name": "Музей «Прохоровское поле»", "latitude": 51.042701, "longitude": 36.749264, "photoUrl": "https://likengo.ru/media/place_cover_large/11/20/9907673545b0ea30383c22.jpeg"},
    {"name": "Курский областной краеведческий музей", "latitude": 51.727587, "longitude": 36.191589, "photoUrl": "https://vkurske.com/media/imgs2018/museum_0hxCbuR.jpg"},
    {"name": "Литературный музей", "latitude": 51.742082, "longitude": 36.188181, "photoUrl": "https://u.livelib.ru/reader/Arlett/o/3yy39cpa/o-o.jpeg"},
    {"name": "Курск – город воинской славы", "latitude": 51.756923, "longitude": 36.187768, "photoUrl": "https://img4.tourbina.ru/photos.4/3/8/2/0/0/1200283/big.photo/Gorod-voinskoy-slavy.jpg"},
    {"name": "Историко-мемориальный музей КП Центрального фронта", "latitude": 51.971378, "longitude": 36.310867, "photoUrl": "http://kursk-museum.ru/wp-content/uploads/2022/06/XXL-1-768x434.jpg"},
    {"name": "Железногорский краеведческий музей", "latitude": 52.343717, "longitude": 35.348376, "photoUrl": "https://zhel.city/upload/medialibrary/ae7/dsc_0640ok.jpg"},
    {"name": "Орловский краеведческий музей", "latitude": 52.964147, "longitude": 36.068431, "photoUrl": "https://sun9-21.userapi.com/hzltcA2beiq4n692svcYpPAD5Z93xsBAanEaNw/lNIkMDxGlVY.jpg"},
    {"name": "Орловский военно-исторический музей", "latitude": 52.953142, "longitude": 36.063875, "photoUrl": "https://avatars.dzeninfra.ru/get-zen_doc/271828/pub_6584a1ba4266cc7bdba8bf00_6584a26b270a0108aa087b05/scale_1200"},
    {"name": "Музей коллекционных кукол", "latitude": 52.967462, "longitude": 36.12842, "photoUrl": "https://www.infoorel.ru/user_foto/muzej_kukol_v_orle_22.jpg"},
    {"name": "музей И.С. Тургенева", "latitude": 52.967111, "longitude": 36.061254, "photoUrl": "https://sculptorkazantsev.ru/assets/cache_image/products/314/img-20181108-0002-obr_800x600_717.jpg"},
    {"name": "Дом-музей В. А. Русанова", "latitude": 52.96329, "longitude": 36.087411, "photoUrl": "https://apartos.ru/uploads/images/landmarks/f_1-49999/f1-99/gallery-landmark-67-f316.jpg"},
    {"name": "Музей И. А. Бунина", "latitude": 52.965983, "longitude": 36.060983, "photoUrl": "http://russia-open.com/files/4162/07.jpg"},
    {"name": "Дом-музей Леонида Андреева", "latitude": 52.961264, "longitude": 36.048971, "photoUrl": "https://privin.ru/wp-content/uploads/2023/02/img_63f3a6cb04f4e-e1676912349948-300x200.jpg"},
    {"name": "Орловский музей изобразительных искусств", "latitude": 52.972268, "longitude": 36.05822, "photoUrl": "https://putidorogi-nn.ru/images/stories/evropa/rossiya/orlovskaya_oblast_12.jpg"},
    {"name": "Липецкий областной краеведческий музей", "latitude": 52.613984, "longitude": 39.608564, "photoUrl": "https://xn--90achcpn0ci.xn--p1ai/sites/lebvesti/files/styles/teaser/public/articles/23791/galery/muzey.jpg?itok=U-caDrUy"},
    {"name": "Автолегенда", "latitude": 52.583095, "longitude": 39.566307, "photoUrl": "https://tur-ray.ru/wp-content/uploads/2018/01/muzey-retrotehniki-avtolegenda-300x225.jpg"},
    {"name": "Музей НЛМК", "latitude": 52.573166, "longitude": 39.621266, "photoUrl": "https://media.nlmk.com/upload/resize_cache/iblock/184/460_306_040cd750bba9870f18aada2478b24840a/5WOfFqvHcy.jpg"},
    {"name": "Липецкий историко-культурный музей", "latitude": 52.617903, "longitude": 39.582812, "photoUrl": "https://time.graphics/uploadedFiles/tlCustomPics/89/d8/89d867764dfb9f5494681917886ca507.jpg"},
    {"name": "Художественный музей имени В.С. Сорокина - Дом Мастера", "latitude": 52.609651, "longitude": 39.60186, "photoUrl": "https://viktorsorokin.ru/file/cover/5e999c5670dfe.jpg"},
    {"name": "Музей купечества и сословий", "latitude": 52.627139, "longitude": 38.498348, "photoUrl": "https://old.liptur.ru/upload/resize_cache/iblock/3a8/600_600_0/3a8e0252ebe9d5fc3b39e625f636daee.jpg"},
    {"name": "Литературно-мемориальный музей И. А. Бунина", "latitude": 52.618694, "longitude": 38.493767, "photoUrl": "http://russia-open.com/files/4162/07.jpg"},
    {"name": "Музей Елецкого кружева", "latitude": 52.619734, "longitude": 38.501905, "photoUrl": "https://fs3.fotoload.ru/f/1019/1572496146/300x300/dba636c273.jpg"},
    {"name": "Тульский государственный музей оружия", "latitude": 54.204272, "longitude": 37.616499, "photoUrl": "https://sun9-6.userapi.com/impg/GPY4Bo0wdK-1ityAEKQ5wwoHxu-TCyQ6iofLjA/9QhPb7O-g0g.jpg?size=604x403&quality=96&sign=76508a3682700458d4124a41c12bef25&c_uniq_tag=FfgY2nXBsHHJFETK53ahjCueeGAJkdX1YAaGmbRhhPE&type=album"},
    {"name": "Музей Тульский пряник", "latitude": 54.211566, "longitude": 37.622105, "photoUrl": "https://tur-ray.ru/wp-content/uploads/2022/02/Muzey-tulskogo-pryanika.jpeg"},
    {"name": "Музей гармони Деда Филимона", "latitude": 54.192505, "longitude": 37.621713, "photoUrl": "http://69-tver.ru/wp-content/uploads/2018/03/5ac241fe7c1d4_MGLRfR2FFCw-768x529.jpg"},
    {"name": "Музей станка", "latitude": 54.191087, "longitude": 37.612136, "photoUrl": "https://knownway.com/images/catalog/1638981813_small.jpg"},
    {"name": "Тульский Историко-архитектурный музей", "latitude": 54.190004, "longitude": 37.614505, "photoUrl": "https://tulago.ru/wp-content/uploads/2021/01/staraya-tul-apteka-tiam-e1610181900926.jpeg"},
    {"name": "Музей «Тульские древности»", "latitude": 54.186354, "longitude": 37.610586, "photoUrl": "https://storage.myseldon.com/news-pict-e2/E2D2A93B3ED61F4BDF5465F4ED691C0A"},
    {"name": "Исторический музей", "latitude": 54.197853, "longitude": 37.617136, "photoUrl": "https://img.myslo.ru/NewsImage/f4/c4/f4c4969f-ad20-44bc-a980-3d730b2959ec_2.jpg"},
    {"name": "Художественно-краеведческий музей", "latitude": 54.5132, "longitude": 37.093721, "photoUrl": "https://sun1-28.userapi.com/impf/Dbvsau4NAbB0sbHZ1LF3_TzXM9af1ZtgSofL_A/gFzz_NQLehk.jpg?size=320x240&quality=96&sign=98be4b9339f22a86cf1638b82bc25925&c_uniq_tag=kMNvaJnCNRHlE21I48YXGq5aOdTPC9WspXhxx_Wh3_s&type=album"},
    {"name": "Музейно-мемориальный комплекс героям Куликовской битвы", "latitude": 53.670591, "longitude": 38.642492, "photoUrl": "https://s00.yaplakal.com/pics/pics_preview/8/5/8/14754858.jpg"},
    {"name": "Тульские самовары", "latitude": 54.194319, "longitude": 37.618821, "photoUrl": "https://orenlib.ru/up/news/article/sam0.jpg"},
    {"name": "Музей-лаборатория", "latitude": 54.197638, "longitude": 37.617157, "photoUrl": "https://visittula.com/upload/resize_cache/iblock/c28/9999_500_1/wky6fd1j54kx2tlv6dtw4q2vxlmwikpw.jpg"},
    {"name": "Музей Мото-Авто-АРТ", "latitude": 54.154436, "longitude": 37.482534, "photoUrl": "https://citadelpark.ru/assets/%D0%9C%D1%83%D0%B7%D0%B5%D0%B9%20%C2%AB%D0%9C%D0%BE%D1%82%D0%BE-%D0%90%D0%B2%D1%82%D0%BE-%D0%90%D1%80%D1%82%C2%BB%201.jpg"},
    {"name": "Музей-заповедник Куликово поле", "latitude": 53.623942, "longitude": 38.672613, "photoUrl": "https://sun1-83.userapi.com/8g4NZpkitxy-SRiQZLRfd4j4QIdHhOwGhx4DOA/B6kBrOp5zVw.jpg"},
    {"name": "Музей купеческого быта", "latitude": 53.827551, "longitude": 38.554383, "photoUrl": "https://cdn.tripster.ru/thumbs2/1d743a62-7c49-11ec-99e5-e2c30721194d.800x600.jpeg"},
    {"name": "Музей Филимоновская игрушка", "latitude": 53.936195, "longitude": 36.687622, "photoUrl": "https://likengo.ru/media/place_cover/14/16/9069867265b9e5ca791321.jpeg"},
    {"name": "Усадьба Дворяниново", "latitude": 54.704284, "longitude": 37.55713, "photoUrl": "https://welcometula.com/thumb/2/nKOFjdmmB-E8zTAC-RNuXw/r/d/%D0%B4%D0%B2%D0%BE%D1%80%D1%8F%D0%BD%D0%B8%D0%BD%D0%BE%D0%B2%D0%BE.jpg"},
    {"name": "Военно-исторический музей", "latitude": 54.195905, "longitude": 37.619724, "photoUrl": "https://r2.mt.ru/r24/photo9A41/20518435125-0/jpg/bp.webp"},
    {"name": "Музей истории космонавтики", "latitude": 54.51697, "longitude": 36.230691, "photoUrl": "https://pic.rutubelist.ru/video/dc/f5/dcf5ff4f48e25f28338e2e0bb04d8258.jpg"},
    {"name": "Мемориальный дом-музей К.Э. Циолковского", "latitude": 54.511175, "longitude": 36.230194, "photoUrl": "https://sun9-76.userapi.com/impg/-arMO68wJFLjOEo6aN3uzfuVG5TQzANu8ChrJA/pEnApLJ5FN4.jpg?size=1074x480&quality=96&sign=f992f8243be37efe8664eab278fa80d4&type=share"},
    {"name": "Музейно-краеведческий комплекс Усадьба Золотарёвых", "latitude": 54.510688, "longitude": 36.245533, "photoUrl": "https://best-trip4you.ru/images/2022/12/18/22_87.jpg"},
    {"name": "Дом-музей А. Л. Чижевского", "latitude": 54.518204, "longitude": 36.2627, "photoUrl": "https://anashina.com/wp-content/uploads/2018/04/IMG_3298-500x333.jpg"},
    {"name": "Калужский музей изобразительных искусств", "latitude": 54.508683, "longitude": 36.256678, "photoUrl": "https://media.izi.travel/0f11d958-04a2-4fb0-91e6-d00941096f8f/ed0bfaac-8be0-42f9-83ab-3aa948f403dd_800x600.jpg"},
    {"name": "Музей стекла Алексея Зеля", "latitude": 54.507302, "longitude": 36.254671, "photoUrl": "https://wikiway.com/upload/resize_cache/iblock/1ed/r8noxvyqplq2bhdp9517v20zo53cs74t/510_340_2/Muzey-khudozhestvennogo-stekla-2.jpg"},
    {"name": "Музейно-краеведческий центр Палаты Коробовых", "latitude": 54.510564, "longitude": 36.242695, "photoUrl": "https://i5.olan.ru/system/photos/entity/930/522/412/medium/img.jpg?1697293614"},
    {"name": "Военно-исторический центр Маршал Победы - Георгий Константинович Жуков", "latitude": 54.516493, "longitude": 36.283567, "photoUrl": "https://i.mycdn.me/getVideoPreview?id=1369542888079&idx=0&type=39&tkn=TMtekhndXLWd_tbq7JkxpQYk66A&fn=vid_x"},
    {"name": "Обнинский музей", "latitude": 55.110739, "longitude": 36.589871, "photoUrl": "https://gtrk-kaluga.ru/public/upload/news/13275/images/m_muzey0928.jpg"},
    {"name": "Художественный музей мусора МУ МУ", "latitude": 55.123313, "longitude": 36.825582, "photoUrl": "https://i.ytimg.com/vi/9M_lavbCL44/hqdefault.jpg"},
    {"name": "Планетарий", "latitude": 54.516892, "longitude": 36.230838, "photoUrl": "https://oratorprofi.ru/800/600/https/pbs.twimg.com/media/D7t467NXoAAcOhR.jpg"},
    {"name": "Музей 1812 года", "latitude": 55.012118, "longitude": 36.473574, "photoUrl": "https://tr.erch2014.com/images/novosti-i-obshestvo/muzej-otechestvennoj-vojni-1812-goda-v-moskve-adres-chasi-raboti-otzivi-foto_7.jpg"},
    {"name": "Музей-диорама Великое Стояние на реке Угре", "latitude": 54.614173, "longitude": 35.999558, "photoUrl": "https://www.diorama-ugra.ru/sites/default/files/styles/300x200/public/photos/dsc01315-2.jpg?itok=HJD7echG"},
    {"name": "Тарусский музей семьи Цветаевых", "latitude": 54.730868, "longitude": 37.175487, "photoUrl": "http://www.radnews.ru/wp-content/uploads/2013/03/111-300x200.jpg"},
    {"name": "Музей Сергея Жарова", "latitude": 54.723248, "longitude": 37.181724, "photoUrl": "https://www.kp40.ru/pictures/news/49036/picture-845h.jpg"},
    {"name": "Мастерская Эдуарда Штейнберга", "latitude": 54.715525, "longitude": 37.18772, "photoUrl": "https://sun9-55.userapi.com/s/v1/ig2/YXHy4mHK9cxwz3NfUggKaKSUWJrTGcVrHjwl3hHvNpy5pNKlR7BXPXXRHgKhVIymclJnCn-eIQbL3jg9JwCP6k5V.jpg?size=604x403&quality=95&type=album"},
    {"name": "Бузеон", "latitude": 54.738701, "longitude": 35.995741, "photoUrl": "https://sun9-30.userapi.com/impg/Lqc2CV6lGbubdBruwfzsEXXjQhKPhPBy2_yQBg/0MEfkK_NBXw.jpg?size=604x403&quality=95&sign=4dc0481a6771c571dc70291db88d976c&c_uniq_tag=HH58BMmOjs5XKzopmkysXQnYB_iLDs5jN7BcSWSANFc&type=album"},
    {"name": "Музей Kомпьютеров", "latitude": 55.20855, "longitude": 36.486071, "photoUrl": "https://avatars.dzeninfra.ru/get-zen_doc/1593343/pub_64e4f06c190abf206a04a1a3_64e4f085bdc64850ca774b24/scale_1200"},
    {"name": "Музейно-выставочный центр", "latitude": 55.203667, "longitude": 36.487626, "photoUrl": "https://starodub-vestnik.ru/wp-content/uploads/2018/08/og_wa0opkaigqjmibj9tykv.jpg"},
    {"name": "Брянский музей истории фотографии", "latitude": 53.244344, "longitude": 34.359779, "photoUrl": "https://static.tildacdn.com/tild6535-3261-4566-a261-663632643562/nashi_tseli_zachem_e.jpg"},
    {"name": "Литературно-Мемориальный Музей Ф.И. Тютчева", "latitude": 53.37308, "longitude": 33.87862, "photoUrl": "https://kletnya-newlife.ru/wp-content/uploads/2018/09/004-600x400.jpg"},
    {"name": "Музей Великой Отечественной войны", "latitude": 54.779374, "longitude": 32.047485, "photoUrl": "https://ekskursii-v-bryanske.ru/upload/resize_cache/iblock/10e/380_285_0/0ctyn9yb9rzfztl88zu0vhb9f6wryf8t.jpg"},
    {"name": "Музей Смоленская крепость, Башня Громовая", "latitude": 54.78007, "longitude": 32.043756, "photoUrl": "https://www.xn--80akahgvf5ajn1b2c.xn--p1ai/wp-content/uploads/2019/07/bashnya-gromovaya-prev.jpg"},
    {"name": "Художественная галерея", "latitude": 54.780461, "longitude": 32.046122, "photoUrl": "https://smolensk67.biz/source/photos/app/b_c291cmNlL3Bob3Rvcy8yMDE3LzEyLzExLzJhNmI1LWRzYy0wMjY5LmpwZw==_640_02a285d1e1.jpg"},
<<<<<<< HEAD
    {"name": "Музей Первого полёта", "latitude": 55.553629, "longitude": 35.004712, "photoUrl": "https://destinationsae.com/img/must-2021/1483/image_17papdYQxah1.jpg"},
=======
    {"name": "Музей Первого полёта", "latitude": 55.553629, "longitude": 35.004712, "photoUrl": "https://museumgagarin.ru/upload/iblock/306/stkg988vgg5dw4vy8p0f9c5lrwfzl4u4.jpg"},
>>>>>>> origin/anastasia
    {"name": "Музей козла", "latitude": 56.853323, "longitude": 35.910438, "photoUrl": "https://static.tildacdn.com/tild3335-3063-4439-a533-656432326663/d7309c909d6fb1515539.jpeg"},
    {"name": "Музей Плюшкина", "latitude": 56.855986, "longitude": 35.917648, "photoUrl": "https://i0.wp.com/pushkinsdelal.ru/wp-content/uploads/2022/02/Tver8-1024x649.jpg?resize=512%2C325&ssl=1"},
    {"name": "Музей тверского быта", "latitude": 56.866496, "longitude": 35.910294, "photoUrl": "https://ds115.detsad.tver.ru/wp-content/uploads/2023/04/1-1-768x416.jpg"},
    {"name": "Музей фотографии Искра", "latitude": 56.858277, "longitude": 35.909846, "photoUrl": "https://cs8.babysfera.ru/s/660x/f/6/3/e/008e8d75fb455a22e568e912c89816a9c68.jpeg"},
    {"name": "Ретро-техно-музей ИнтернетаНЕТ", "latitude": 56.85441, "longitude": 35.910437, "photoUrl": "https://sun9-31.userapi.com/impg/3Vl9zA8pWCKsOxNOYDm_aRwt-zYD34MXa3ZCaw/N8A_fbSi54k.jpg?size=604x453&quality=95&sign=058d531d0e7cebf2c01b771de300d36a&c_uniq_tag=Ws0H1ht1I8vyP880pFuZXwZBkCaJxlHocx3lAufHVvg&type=album"},
    {"name": "Музей Михаила Круга", "latitude": 56.850166, "longitude": 35.907613, "photoUrl": "https://tur-ray.ru/wp-content/uploads/2017/12/muzey-mihaila-kruga.jpg"},
    {"name": "Музей золотного шитья", "latitude": 57.031288, "longitude": 34.988408, "photoUrl": "https://darshoes.ru/800/600/https/www.vremyan.ru/_data/objects/0025/1918/icon.jpg"},
    {"name": "Музей стекла завода Красный май", "latitude": 57.588388, "longitude": 34.557879, "photoUrl": "https://i2.wp.com/img-fotki.yandex.ru/get/931298/67142364.182/0_210574_d155c552_orig.jpg"},
    {"name": "Вышневолоцкий краеведческий музей имени Г. Г. Монаховой", "latitude": 57.584851, "longitude": 34.560525, "photoUrl": "https://ezdy.ru/assets/cache_image/images/vyshnevolockijj-kraevedcheskijj-muzejj-vyshnijj-volochek/vyshnevolockijj-kraevedcheskijj-muzejj-vyshnijj-volochek01_384x256_e0a.jpg"},
    {"name": "Ржевский краеведческий музей", "latitude": 56.260367, "longitude": 34.330319, "photoUrl": "https://upload.wikimedia.org/wikipedia/commons/thumb/d/d7/%D0%AD%D0%BA%D1%81%D0%BF%D0%BE%D0%B7%D0%B8%D1%86%D0%B8%D1%8F_%D0%A0%D0%B6%D0%B5%D0%B2%D1%81%D0%BA%D0%BE%D0%B3%D0%BE_%D0%BA%D1%80%D0%B0%D0%B5%D0%B2%D0%B5%D0%B4%D1%87%D0%B5%D1%81%D0%BA%D0%BE%D0%B3%D0%BE_%D0%BC%D1%83%D0%B7%D0%B5%D1%8F.jpg/800px-%D0%AD%D0%BA%D1%81%D0%BF%D0%BE%D0%B7%D0%B8%D1%86%D0%B8%D1%8F_%D0%A0%D0%B6%D0%B5%D0%B2%D1%81%D0%BA%D0%BE%D0%B3%D0%BE_%D0%BA%D1%80%D0%B0%D0%B5%D0%B2%D0%B5%D0%B4%D1%87%D0%B5%D1%81%D0%BA%D0%BE%D0%B3%D0%BE_%D0%BC%D1%83%D0%B7%D0%B5%D1%8F.jpg"},
    {"name": "Кимрский краеведческий музей", "latitude": 56.872847, "longitude": 37.355604, "photoUrl": "https://anashina.com/wp-content/uploads/2020/06/Kimry-16-500x333.jpg"},
    {"name": "Музыка и время", "latitude": 57.630078, "longitude": 39.895167, "photoUrl": "https://sun6-22.userapi.com/impg/R1WWtPDV14E0fhLWetxsJfXBAtDbm4zr7ZjtMw/zKOysIbdzic.jpg?size=604x390&quality=95&sign=f3e3be9a6b57c3f5682638e0fe051ac8&c_uniq_tag=WIJqbpvB3oaahZ4UBfaHTNdh2L3D6zwpJzZ9PXfyLug&type=album"},
    {"name": "Ярославский художественный музей", "latitude": 57.628289, "longitude": 39.897206, "photoUrl": "https://triiips.com/storage/app/media/category/sight/4e/96/8d/1462_d415d53bcb97e01b_md.jpg"},
    {"name": "Музей истории города Ярославля", "latitude": 57.627059, "longitude": 39.898601, "photoUrl": "https://trippo.ru/wp-content/uploads/2019/11/muzey-istorii-goroda-yaroslavlya.jpg"},
    {"name": "Мультимедийный музей нового взгляда на историю", "latitude": 57.632396, "longitude": 39.893411, "photoUrl": "https://avatars.mds.yandex.net/get-altay/4447467/2a00000177539a9a80d297f97bf41f0ebc77/M"},
    {"name": "Музей боевой славы", "latitude": 57.633218, "longitude": 39.8317, "photoUrl": "https://upload.wikimedia.org/wikipedia/commons/thumb/1/13/Tank_in_Museum_of_Military_Glory_in_Yaroslavl_%286072977802%29.jpg/440px-Tank_in_Museum_of_Military_Glory_in_Yaroslavl_%286072977802%29.jpg"},
    {"name": "Музей им. В. Ю. Орлова", "latitude": 57.626421, "longitude": 39.899205, "photoUrl": "https://www.xn--80akahgvf5ajn1b2c.xn--p1ai/wp-content/uploads/2020/09/orlovmuseum-23-2.jpg"},
    {"name": "Рыбинский музей-заповедник", "latitude": 58.049425, "longitude": 38.856285, "photoUrl": "https://rweek.ru/wp-content/uploads/2021/07/96375afb1e3f28cfc77f22361f8f3044.jpeg"},
    {"name": "Музей Советская эпоха", "latitude": 58.073149, "longitude": 38.815925, "photoUrl": "https://barontour.ru/uploads/s/2/o/x/2ox8fwkbyddo/img/autocrop/4bfac1099040efe2d04abd5ad6ea7886.jpg"},
    {"name": "Музей Мологского края", "latitude": 58.047322, "longitude": 38.855442, "photoUrl": "https://gazeta-rybinsk.ru/wp-content/uploads/2018/05/%D0%BC%D0%BE%D0%BB%D0%BE%D0%B3%D0%B0-1-700x398.jpg"},
    {"name": "Русская Атлантида", "latitude": 58.04922, "longitude": 38.855643, "photoUrl": "https://www.ufostation.net/images/articles/26/9/7/270820_mologa_t3.jpg"},
    {"name": "Музей гидроэнергетики", "latitude": 57.524446, "longitude": 38.303831, "photoUrl": "https://www.komandirovka.ru/upload/save_file30/38f/38fa9f0c896104b5e08944ff48e29d0f.jpg"},
    {"name": "Музей тюремного искусства Запретная зона", "latitude": 57.529452, "longitude": 38.32124, "photoUrl": "https://map.autogoda.ru/wp-content/uploads/2021/04/%D0%9C%D1%83%D0%B7%D0%B5%D0%B9-%D1%82%D1%8E%D1%80%D0%B5%D0%BC%D0%BD%D0%BE%D0%B3%D0%BE-%D0%B8%D1%81%D0%BA%D1%83%D1%81%D1%81%D0%B2%D0%B0.jpg"},
    {"name": "Музей Мифы и суеверия русского народа", "latitude": 57.52351, "longitude": 38.307963, "photoUrl": "https://sun6-20.userapi.com/impg/hRd2qNbH8wrw1u71kjnkCTOG7plRQD_1hTEGuA/yelYcKlHMH0.jpg?size=604x453&quality=95&sign=deeebef35b6c12ffdf535b36be65b327&c_uniq_tag=69YR7F73f86884euy0SN0pBb-JLzK8vPE0SNDRwQyeQ&type=album"},
    {"name": "Музей истории велосипедов Самокатъ", "latitude": 57.529358, "longitude": 38.321423, "photoUrl": "https://tur.scooltravel.ru/data/Foto/1/lsjglk3216841085.jpg"},
    {"name": "Музей кожевенного ремесла", "latitude": 57.529793, "longitude": 38.32162, "photoUrl": "https://xn--b1acldbbu8cj7b.xn--p1ai/upload/news/PQJTMvuaB8U.jpg"},
    {"name": "Музей Царевны-лягушки", "latitude": 57.182759, "longitude": 39.405209, "photoUrl": "https://rus-camper.ru/wp-content/uploads/5/3/e/53eb3dd19d38149c32f6a5336f5cde3a.jpeg"},
    {"name": "Музей Народного Искусства", "latitude": 57.1819, "longitude": 39.403927, "photoUrl": "https://vibirai.ru/image/1156692.jpg"},
    {"name": "Богатырское подворье Алёши Поповича и мастерская Марьи Искусницы", "latitude": 57.183159, "longitude": 39.402175, "photoUrl": "http://xn--80ag7agclh.xn--p1ai/thumb/2/apA33V5OYxG8yVhbOjzQbg/500c500/d/6f37a435.jpg"},
    {"name": "Музей Ростовское подворье", "latitude": 57.18638, "longitude": 39.416443, "photoUrl": "https://ezdy.ru/assets/cache_image/images/muzejj-rostovskoe-podvore-rostov/muzejj-rostovskoe-podvore-rostov01_384x256_e0a.jpg"},
    {"name": "Ростовская пряница", "latitude": 57.181641, "longitude": 39.400977, "photoUrl": "https://sun9-81.userapi.com/impg/5dgxNgAUyl1gfuci4Nl1unrUOM1AnSF2qpTLWw/m5qs3ffXaj0.jpg?size=604x340&quality=95&sign=e3b17bd0de3612338a0aa2dd99753b4c&c_uniq_tag=awQGxm3FJf45lP1oH4JDKkwvFzoKshd03NRZDXxlfLo&type=album"},
    {"name": "Музей утюга", "latitude": 56.734618, "longitude": 38.85247, "photoUrl": "https://tur-ray.ru/wp-content/uploads/2019/05/muzey-utyuga.jpg"},
    {"name": "Шоу-макет Золотое кольцо", "latitude": 57.62697, "longitude": 39.89728, "photoUrl": "https://webpulse.imgsmail.ru/imgpreview?key=pulse_cabinet-image-97185283-199d-4162-b24c-6de8a25748e1&mb=webpulse"},
    {"name": "Музей мыши", "latitude": 57.783786, "longitude": 38.450742, "photoUrl": "https://tur.scooltravel.ru/data/Foto/1/fdijkdl35180058.jpg"},
    {"name": "Музей баклуши и библиотека варенья", "latitude": 57.311617, "longitude": 39.518694, "photoUrl": "https://avatars.mds.yandex.net/get-altay/2094876/2a0000016cf8e5626fb40c222435446ad004/M"},
<<<<<<< HEAD
    {"name": "Мышкины палаты", "latitude": 57.785626, "longitude": 38.4538, "photoUrl": "https://caleche.org/img/puti-2021/2047/image_O3EtZScG27tC34n9Wnlqx7y.jpg"},
=======
    {"name": "Мышкины палаты", "latitude": 57.785626, "longitude": 38.4538, "photoUrl": "https://myshkinru.ru/images/museums/dvorets/dvoret83.jpg"},
>>>>>>> origin/anastasia
    {"name": "Музей радио", "latitude": 56.722978, "longitude": 38.824372, "photoUrl": "https://www.radiomuseum.org/museum/rus/a.s.-popov-museum-of-radio-ekaterinburg/thumbnails/jekaterinburg_radio_museum07.jpg"},
    {"name": "Лукова слобода", "latitude": 57.19443, "longitude": 39.402462, "photoUrl": "https://komanda-sibiri.ru/wp-content/uploads/324.jpg"},
    {"name": "Музей сыра", "latitude": 57.762517, "longitude": 40.930541, "photoUrl": "https://extraguide.ru/images/pthumb/blog/2021/01-18-f2zib8-muzey-syra.cd9f7e96.jpg"},
    {"name": "Музей-усадьба льна и бересты", "latitude": 57.778283, "longitude": 40.912275, "photoUrl": "http://xn--80ag7agclh.xn--p1ai/thumb/2/maGpwzXEzUYFURRcH3leww/500c500/d/muzey-lna-i-beresty-countryscanner-5.jpg"},
    {"name": "Дом городского головы Г.Н. Ботникова", "latitude": 57.76689, "longitude": 40.931561, "photoUrl": "https://tur-ray.ru/wp-content/uploads/2017/11/dom-gorodskogo-golovy-g.n.-botnikova-768x508.jpg"},
    {"name": "Романовский музей", "latitude": 57.76963, "longitude": 40.929817, "photoUrl": "https://trippo.ru/wp-content/uploads/2019/12/romanovskiy-muzey-668x400.jpg"},
    {"name": "Музей народных промыслов Петровская игрушка", "latitude": 57.769124, "longitude": 40.913451, "photoUrl": "https://sun9-46.userapi.com/impg/gkICd2egNMD0ZSwwUu2DMUNjMCNy0_NNe9NX9A/4gCBruv2FLU.jpg?size=604x383&quality=95&sign=0363dcf480580c0918179fee0b92c3e1&type=album"},
    {"name": "Лес Чудодей", "latitude": 57.775469, "longitude": 40.903656, "photoUrl": "https://kudabilet.net/wp-content/uploads/2020/02/muzei-v-kostrome.jpg"},
    {"name": "Терем Снегурочки", "latitude": 57.755679, "longitude": 40.950939, "photoUrl": "https://www.vorkuta-cbs.ru/wp-content/uploads/2023/12/4-1-660x330.jpeg"},
    {"name": "Музей советского автопрома", "latitude": 56.996854, "longitude": 40.959893, "photoUrl": "https://imapress.media/wp-content/uploads/2018/04/789798-505x306_c.jpg"},
    {"name": "Музей Ивановского ситца", "latitude": 57.004843, "longitude": 40.97389, "photoUrl": "https://sun9-18.userapi.com/impg/HnwBnot1TU_gc943XU4rv-Q3J3v2tCKsvJPJLA/utGmaiRKzr8.jpg?size=400x256&quality=95&sign=ce84380e3148b267356b6a964180b8b6&c_uniq_tag=elldazILUWNHE65rUSd933JD03F0nWI6x-n1j4Zo57c&type=album"},
    {"name": "Музей промышленности и искусства", "latitude": 57.004354, "longitude": 40.974172, "photoUrl": "http://nextews.com/images/29/44/29442b8b7e1b0ed0_354x242.jpg"},
    {"name": "Ивановский областной художественный музей", "latitude": 57.008145, "longitude": 40.971791, "photoUrl": "https://lh5.googleusercontent.com/p/AF1QipMI62WqNTqbYBsm_-gpk6M_JvDLdCwAoJ_8piAA=w592-h404-n-k-no-v1"},
    {"name": "Мемориальный дом-музей И.И. Левитана", "latitude": 57.459304, "longitude": 41.523661, "photoUrl": "https://ntdtv.ru/sites/default/files/muzey_levitana.jpg"},
    {"name": "Музей Старый Владимир", "latitude": 56.125151, "longitude": 40.398685, "photoUrl": "https://sun9-59.userapi.com/impg/cSKV3prK7SlQaupaofbFNtnvAQ68jCymRydQHQ/DYxhtUY0ioY.jpg?size=604x377&quality=95&sign=d52726148038bfc5b908791ed45338bc&c_uniq_tag=_Z1KwwufzMmmFWv6X--u6FOF4cXNofMZfA-D_w6rDPk&type=album"},
    {"name": "Дом-музей пряника", "latitude": 56.128181, "longitude": 40.404515, "photoUrl": "https://sun9-8.userapi.com/impg/zCIwuYDm9OsHCpFy75pvYIrV-B2fjsLp-UExNw/i2yO8PAhqYE.jpg?size=657x453&quality=95&sign=a593d49674b3bf680522fec83bc97938&c_uniq_tag=7E_T88aDnXFUViAd-EfK3tAma7Crx7dgJOXidLuHixM&type=album"},
    {"name": "Музей ложки", "latitude": 56.12745, "longitude": 40.403348, "photoUrl": "https://wikiway.com/upload/iblock/1f3/30_Muzey-lozhki.jpg"},
    {"name": "Кузница-музей Бородиных", "latitude": 56.126805, "longitude": 40.40261, "photoUrl": "https://sun9-27.userapi.com/impf/yfI0aBapywnSLDuyRL6TsJ9nF9Q0TLldY-SgOQ/k2RJ2R1OJ7o.jpg?size=320x240&quality=96&sign=8a74f02d4e46ceaf703f8ee4bcf70ea5&c_uniq_tag=0MdITqzA0c28JJvNU3x68FNOORHz-f7ZlNWmXCoxe98&type=album"},
    {"name": "Музей-сказка Бабуся-Ягуся", "latitude": 56.127675, "longitude": 40.402115, "photoUrl": "https://sun9-72.userapi.com/impf/c856124/v856124449/75d9e/MDAUtfOM3tM.jpg?size=604x453&quality=96&sign=8b3c8d98e075ddce7cb86aa4ce8f2be3&c_uniq_tag=uVom6Hz5IqNsUxzerTAgnNpX4FQqELQcAtc_bqA0FeY&type=album"},
    {"name": "Музей «Старая аптека»", "latitude": 56.127253, "longitude": 40.402362, "photoUrl": "https://avatars.mds.yandex.net/get-altay/1870294/2a000001735dd2afbfbc38b7589be9475206/L"},
<<<<<<< HEAD
    {"name": "Музей хрусталя имени Мальцовых", "latitude": 55.61982, "longitude": 40.658117, "photoUrl": "https://1zoom.club/pic77.php?src=https://1zoom.club/uploads/posts/2023-06/thumbs/1687763543_1zoom-club-p-muzei-khrustalya-v-gus-khrustalnom-25.jpg&w=360&h=205&zc=1"},
=======
    {"name": "Музей хрусталя имени Мальцовых", "latitude": 55.61982, "longitude": 40.658117, "photoUrl": "https://upload.wikimedia.org/wikipedia/commons/d/dd/%D0%9C%D1%83%D0%B7%D0%B5%D0%B9_%D1%85%D1%80%D1%83%D1%81%D1%82%D0%B0%D0%BB%D1%8F_%D0%B8%D0%BC%D0%B5%D0%BD%D0%B8_%D0%9C%D0%B0%D0%BB%D1%8C%D1%86%D0%BE%D0%B2%D1%8B%D1%85.jpg"},
>>>>>>> origin/anastasia
    {"name": "Кибер музей. Музей воспоминаний", "latitude": 55.580339, "longitude": 42.054271, "photoUrl": "https://topgid.net/uploads/posts/2020-11/5fad58d9c809d-10301-kiber-muzej.jpeg"},
    {"name": "Хлебная горница", "latitude": 55.569142, "longitude": 42.021963, "photoUrl": "https://tur.scooltravel.ru/data/Foto/1/sokgpo31835132.jpg"},
    {"name": "Нескучный Mузей Изба Трактир", "latitude": 56.417028, "longitude": 40.448934, "photoUrl": "https://dynamic-media-cdn.tripadvisor.com/media/photo-o/1d/77/19/6c/izba-traktir-museum-7.jpg?w=500&h=-1&s=1"},
    {"name": "Музей восковых фигур", "latitude": 56.418694, "longitude": 40.448229, "photoUrl": "https://vshkole30.ru/wp-content/uploads/muz_vosk_figur.jpg"},
    {"name": "Музей Огни Владимира", "latitude": 56.12762, "longitude": 40.399929, "photoUrl": "http://invladimir-ru.1gb.ru/content/htmlimage88.jpg"},
    {"name": "Исторический парк Россия - Моя история", "latitude": 45.02169, "longitude": 41.895405, "photoUrl": "https://stavropol-eparhia.ru/files/2023/02/6fd3c5ca81d1628dce9f72f0f842deeb_cr-270x200.jpg"},
    {"name": "Ставропольский государственный историко-культурный и природно-ландшафтный музей-заповедник имени Г. Н. Прозрителева и Г. К. Праве", "latitude": 45.044704, "longitude": 41.968207, "photoUrl": "https://www.stavplus.ru/media/k2/items/cache/5fdbe49b079003afd13dfc91da423df5_Generic.jpg"},
    {"name": "Пятигорский краеведческий музей", "latitude": 44.036116, "longitude": 43.079856, "photoUrl": "https://stv.ayle.ru/crop_t/330/160/images/catalog/62970.jpg"},
    {"name": "Музей насекомых Экзотариум", "latitude": 44.037612, "longitude": 43.083546, "photoUrl": "https://turist-kavkaz.ru/wp-content/uploads/2019/03/IMG_6448-300x200.jpg"},
    {"name": "Домик М. Ю. Лермонтова", "latitude": 44.039582, "longitude": 43.078808, "photoUrl": "https://lh3.googleusercontent.com/h1imZn2p25mEbITcznShKBnbp7X1mE2V9D9y-S6evTtLY9FZBZwA0rNxOZfccc1QwqgfKKzHqZ9oitb4XPKMf_CabwgA-IHJArxrG1vx5sFqRVh5hFPg_nqPFkgJB1-zVA=w740"},
    {"name": "Россия – моя история", "latitude": 44.03637, "longitude": 43.013081, "photoUrl": "https://vestikavkaza.ru/upload/s400x267/2020-09-11/15998426815f5ba979278f50.47827354.jpg"},
    {"name": "Планетарий", "latitude": 44.033742, "longitude": 43.06516, "photoUrl": "https://oratorprofi.ru/800/600/https/pbs.twimg.com/media/D7t467NXoAAcOhR.jpg"},
    {"name": "Зоопарк Берендеево", "latitude": 44.033577, "longitude": 43.059645, "photoUrl": "https://sun9-17.userapi.com/s/v1/if2/yjDwTLUycdbSou7Hlag5YJACAMS2tbJadG2Or0jowDA_CQfR61oN5Bl3RQrABHL9-AKoGx_VFieLGv7T6PlrGuUC.jpg?size=604x453&quality=96&type=album"},
    {"name": "Лермонтовская галерея", "latitude": 44.036681, "longitude": 43.081991, "photoUrl": "https://kstrip.ru/wp-content/uploads/2020/09/park-flower-garden-pyatigorsk.jpg"},
    {"name": "музей-усадьба художника Николая Александровича Ярошенко", "latitude": 43.892832, "longitude": 42.718557, "photoUrl": "https://sun9-42.userapi.com/impg/MyQILW_Vvz47j-G7I3QkZG6vPdiq3rGHmhZykQ/nX516g0KFJ4.jpg?size=604x346&quality=95&sign=782864efc5fa733fca1b9366b3626486&c_uniq_tag=ie-oIHOmCmPTeWduP8LPDGXPZ6krRlv8js_zkU9xfkY&type=album"},
    {"name": "Литературно-музыкальный музей Дача Шаляпина", "latitude": 43.900877, "longitude": 42.722964, "photoUrl": "https://d19d2iasf5vyac.cloudfront.net/thumbs2/51fbd614-123c-11eb-8e01-362b2eb3a78b.800x600.jpg"},
    {"name": "Кисловодский историко-краеведческий музей Крепость", "latitude": 43.89476, "longitude": 42.716415, "photoUrl": "http://kmvline.ru/article/i/237.jpg"},
    {"name": "Музей истории и природы национального парка Кисловодский", "latitude": 43.900446, "longitude": 42.717017, "photoUrl": "https://avatars.dzeninfra.ru/get-zen_doc/3385201/pub_5f285a0042c6e159dfb5e575_5f285c755d7bb110e43cf19e/scale_1200"},
    {"name": "Информационно-культурный центр Музей А. И. Солженицына", "latitude": 43.901304, "longitude": 42.72407, "photoUrl": "https://upload.wikimedia.org/wikipedia/commons/thumb/f/f6/Kislovodsk%2Cper.Borodinskiy%2C3.jpg/240px-Kislovodsk%2Cper.Borodinskiy%2C3.jpg"},
    {"name": "Театр-музей «Благодать»", "latitude": 43.900442, "longitude": 42.726733, "photoUrl": "https://gorodskoyportal.ru/kavmin/pictures/places/2375/2375_big.jpg"},
    {"name": "Пушкинская галерея", "latitude": 44.135037, "longitude": 43.031651, "photoUrl": "https://7d9e88a8-f178-4098-bea5-48d960920605.selcdn.net/a12985ab-16ae-4875-bffd-3342894bd058/-/scale_crop/800x600/center/-/quality/best/"},
    {"name": "Смирновский источник", "latitude": 44.137667, "longitude": 43.035159, "photoUrl": "https://rus-camper.ru/wp-content/uploads/b/c/a/bca0ac8b899c836d64f842836b71e6af.jpeg"},
    {"name": "Специальная астрофизическая обсерватория", "latitude": 43.677138, "longitude": 41.457881, "photoUrl": "https://sun9-38.userapi.com/impg/c858236/v858236682/23d5a7/aHdaRXMjdyc.jpg?size=1074x480&quality=96&sign=4a4f55ddc1696d0876493eb880f804d2&type=share"},
    {"name": "Планетарий САО", "latitude": 43.675582, "longitude": 41.457283, "photoUrl": "https://i.pinimg.com/474x/e9/d8/37/e9d837591c5b4eccaecb3d3af5aebe0b--stained-glass.jpg"},
    {"name": "Национальный музей КБР", "latitude": 43.486557, "longitude": 43.608177, "photoUrl": "https://traveler365.ru/wp-content/uploads/2022/09/f7644d0f03b333357a27f00f7675ebd9.jpg"},
    {"name": "Минеральная питьевая галерея «Источник Нальчик»", "latitude": 43.456847, "longitude": 43.584925, "photoUrl": "http://grand-kavkaz.ru/wp-content/uploads/2020/02/feb715-300x213.jpg"},
    {"name": "Музей Обороны Приэльбрусья", "latitude": 43.290087, "longitude": 42.460457, "photoUrl": "https://museum-kbrglav.ru/wp-content/uploads/2020/02/img_7712.jpg"},
    {"name": "Национальный музей Республики Северная Осетия-Алания", "latitude": 43.027313, "longitude": 44.680652, "photoUrl": "https://icdn.bolshayastrana.com/300x200/cc/a8/cca857f4151f67c5f64fd40fb269b168.jpeg"},
    {"name": "Художественный музей имени М. С. Туганова", "latitude": 43.02898, "longitude": 44.68115, "photoUrl": "https://redeveloper.ru/upload/resize_cache/iblock/89c/320_320_1/vladikavkaz.jpg"},
    {"name": "Музей истории Владикавказа", "latitude": 43.034926, "longitude": 44.682355, "photoUrl": "http://xn--b1afagyfh5b8a2c.xn--80atdujec4e.xn--p1ai/data/events/akciya_noch_muzeev_v_muzee_istorii_goroda_vladikavkaza/4704_mainfoto.JPG"},
    {"name": "Музей Чеченской Республики", "latitude": 43.324217, "longitude": 45.6824, "photoUrl": "https://lh5.googleusercontent.com/p/AF1QipOfx3u0-6ByxE6zAYck3DyDGZPK9GTGhgO_PThG=w592-h404-n-k-no-v1"},
    {"name": "Национальный музей Республики Дагестан", "latitude": 42.982774, "longitude": 47.510731, "photoUrl": "https://kudabilet.net/wp-content/uploads/2023/02/nacionalnyi-muzei.jpg"},
    {"name": "Россия – моя история", "latitude": 42.968691, "longitude": 47.495393, "photoUrl": "https://iqna.ir/files/ru/news/2018/9/23/9979_580.jpg"},
    {"name": "Дагестанский музей изобразительных искусств имени П.С. Гамзатовой", "latitude": 42.982373, "longitude": 47.510807, "photoUrl": "https://decoratorlife.ru/wp-content/uploads/2019/11/vyxodnye-noch-iskusstv-i-den-narodnogo-edinstva_4-420x281.jpg"},
    {"name": "Музей-заповедник – этнографический комплекс Дагестанский аул", "latitude": 42.982669, "longitude": 47.510925, "photoUrl": "http://devturizm.e-dag.ru/storage/places/310719/2101779f02a03b3e74ea78c1b2801b8a.jpg"},
    {"name": "Музей ковры и декоративно-прикладное искусство Дагестана", "latitude": 42.057105, "longitude": 48.287133, "photoUrl": "http://azertravel.ru/images/thumbnails/images/azer-pictures/cities/Nakhchivan_Autonomous_Republic/Nakhchivan/Museum_of_Carpets/0200_Nakhchivan_Museum_of_Carpets_%D0%9D%D0%B0%D1%85%D0%B8%D1%87%D0%B5%D0%B2%D0%B0%D0%BD%D1%8C_%D0%9C%D1%83%D0%B7%D0%B5%D0%B9_%D0%BA%D0%BE%D0%B2%D1%80%D0%BE%D0%B2-fill-320x240.JPG"},
    {"name": "Дом Петра І", "latitude": 42.062012, "longitude": 48.304128, "photoUrl": "https://i.pinimg.com/736x/15/36/55/153655f8d93435d57fbeb8f17f730e91.jpg"},
    {"name": "Музей боевой славы", "latitude": 42.069881, "longitude": 48.296077, "photoUrl": "https://www.gradyar.ru/wp-content/uploads/2021/02/img-0851-396x246.jpg"},
    {"name": "Этно Дом Кубачи", "latitude": 42.061562, "longitude": 48.304272, "photoUrl": "https://sun9-46.userapi.com/c834401/v834401495/1916f0/hLQVEdmcCSE.jpg"},
    {"name": "Хунзахский музей", "latitude": 42.538085, "longitude": 46.702862, "photoUrl": "https://www.culture.ru/storage/images/9c05750d-594d-5245-b452-74e5f6b171a1/c_fill,g_center,w_400,h_292/7585b9f56953774e01c87742710d9418.jpeg"},
    {
        "name": "Мемориал «Маска скорби»",
        "latitude": 59.591679,
        "longitude": 150.812086,
        "photoUrl": "https://cdn.iportal.ru/news/2015/99/preview/4b8e4f34e9d30553cf5fe92e38136eb50693934d_1100.jpg"
    },
    {
        "name": "Памятник «Здесь начинается Россия»",
        "latitude": 53.188597,
        "longitude": 158.425708,
        "photoUrl": "https://kamtoday.ru/upload/iblock/4c4/IMG_5294.JPG"
    },

    {
        "name": "Иволгинский дацан",
        "latitude": 51.759171,
        "longitude": 107.203334,
        "photoUrl": "https://i01.fotocdn.net/s205/e03048852284618b/public_pin_l/2349937603.jpg"
    },
    {
        "name": "Арка Полярного круга",
        "latitude": 66.513603,
        "longitude": -179.192325,
        "photoUrl": "https://avatars.dzeninfra.ru/get-zen_doc/1222191/pub_60ad43029943417b359d96d5_60ad545a54881146f4b28591/scale_1200"
    },
    {
        "name": "Триумфальная арка",
        "latitude": 50.256733,
        "longitude": 127.521610,
        "photoUrl": "https://top10a.ru/wp-content/uploads/2019/11/4-101.jpg"
    },
    {
        "name": "Владивостокская крепость",
        "latitude": 43.113726,
        "longitude": 131.892815,
        "photoUrl": "https://must-see.top/wp-content/uploads/2021/04/vladivostokskaya-krepost.jpg"
    },
    {
        "name": "Петроглифы Сикачи-Аляна",
        "latitude": 48.751670,
        "longitude": 135.647898,
        "photoUrl": "https://static.tildacdn.com/tild6264-3264-4337-b666-316436373130/DSC08710.JPG"
    },
    {
        "name": "Комплекс «Царство вечной мерзлоты» в Якутске",
        "latitude": 62.044143805624806,
        "longitude": 129.62401456960816,
        "photoUrl": "https://ic.pics.livejournal.com/dementievskiy/13523675/1542564/1542564_1000.jpg"
    },
    {
        "name": "Скульптура мамонта в Магадане",
        "latitude": 62.044056,
        "longitude": 129.624337,
        "photoUrl": "http://s2.fotokto.ru/photo/full/312/3123083.jpg"
    },
	{
        "name": "Музей истории БАМа в Тынде",
        "latitude": 55.146737,
        "longitude": 124.731071,
<<<<<<< HEAD
        "photoUrl": "https://s9.travelask.ru/uploads/hint_place/000/099/742/photoUrl/39e152a55305962374eb1264b4d56054.jpg"
=======
        "photoUrl": "https://avatars.mds.yandex.net/get-altay/5098556/2a00000181f59fe3378a813aa4a3023127d4/L_height"
>>>>>>> origin/anastasia
    },
    {
        "name": "Дальневосточный аэрокосмический музей",
        "latitude": 50.378787,
        "longitude": 128.014815,
        "photoUrl": "https://static.tildacdn.com/tild6137-6337-4439-a565-633930366234/1595813228122077914.jpg"
    },
    {
        "name": "Этнографический комплекс «Эвенкийская деревня»",
        "latitude": 55.115110,
        "longitude": 124.890591,
        "photoUrl": "https://gazeta-bam.ru/media/resized/iyHWwDg6jQfD2Cia0Eyf_6nm2jX3S59rXjmFv2eKRJ8/rs:fit:1024:768/aHR0cHM6Ly9nYXpl/dGEtYmFtLnJ1L21l/ZGlhL3Byb2plY3Rf/c21pM183MjEvODEv/MWEvZTMvNDUvYmUv/NTIvc2FqdC5qcGc.jpg"
    },
    {
        "name": "Амурский Областной театр драмы",
        "latitude": 50.259405,
        "longitude": 127.513775,
        "photoUrl": "https://fb.ru/misc/i/gallery/55971/3184564.jpg"
    },
    {
        "name": "Этнографический музей народов Забайкалья, государственное автономное учреждение культуры РБ — Бурятия",
        "latitude": 51.884390,
        "longitude": 107.651242,
        "photoUrl": "https://i5.photo.2gis.com/photoUrls/branch/37/5207287087881047_36e9.jpg"
    },
    {
        "name": "Национальный музей Республики Бурятия",
        "latitude": 51.825474,
        "longitude": 107.589479,
        "photoUrl": "https://moi-goda.ru/photoUrls/opengraph/gradient_article_183896.jpg"
    },
    {
        "name": "Кяхтинский краеведческий музей им. ак. В.А. Обручева",
        "latitude": 50.357592,
        "longitude": 106.450153,
<<<<<<< HEAD
        "photoUrl": "https://putidorogi-nn.ru/photoUrls/stories/evropa/rossiya/respublika_buryatiya_6.jpg"
=======
        "photoUrl": "https://upload.wikimedia.org/wikipedia/commons/thumb/e/ef/%D0%9A%D1%8F%D1%85%D1%82%D0%B8%D0%BD%D1%81%D0%BA%D0%B8%D0%B9_%D0%BA%D1%80%D0%B0%D0%B5%D0%B2%D0%B5%D0%B4%D1%87%D0%B5%D1%81%D0%BA%D0%B8%D0%B9_%D0%BC%D1%83%D0%B7%D0%B5%D0%B9%2C_%D0%91%D1%83%D1%80%D1%8F%D1%82%D0%B8%D1%8F.jpg/250px-%D0%9A%D1%8F%D1%85%D1%82%D0%B8%D0%BD%D1%81%D0%BA%D0%B8%D0%B9_%D0%BA%D1%80%D0%B0%D0%B5%D0%B2%D0%B5%D0%B4%D1%87%D0%B5%D1%81%D0%BA%D0%B8%D0%B9_%D0%BC%D1%83%D0%B7%D0%B5%D0%B9%2C_%D0%91%D1%83%D1%80%D1%8F%D1%82%D0%B8%D1%8F.jpg"
>>>>>>> origin/anastasia
    },
    {
        "name": "Бурятский государственный академический театр оперы и балета",
        "latitude": 51.832882,
        "longitude": 107.583377,
        "photoUrl": "https://www.infpol.ru/upload/iblock/53c/53c7a6e0b9cb75b6103e6368884ddca6.jpg"
    },
    {
        "name": "Камчатский театр Драмы и Комедии",
        "latitude": 53.022021,
        "longitude": 158.645915,
        "photoUrl": "https://mk.mrgcdn.ru/cab49f751b7e1c5a318bfbea91a17152.jpg"
    },
    {
        "name": "Музей вулканов 'Вулканариум' — Камчатка",
        "latitude": 53.034248,
        "longitude": 158.644747,
        "photoUrl": "https://tripplanet.ru/wp-content/uploads/europe/russia/kamchatka/volcano-museum-volcanarium.jpg"
    },
    {
        "name": "Хабаровский краевой музей имени Н.И. Гродекова",
        "latitude": 48.473345,
        "longitude": 135.050538,
        "photoUrl": "https://farm2.staticflickr.com/1493/25707120836_31e0cbe728_o.jpg"
    },
    {
        "name": "Дальневосточный художественный музей",
        "latitude": 48.472994,
        "longitude": 135.052506,
        "photoUrl": "https://tourkhv.ru/upload/iblock/438/438ee14cb453e48ca5235b93e1a36a41.jpg"
    },
    {
        "name": "Магаданский областной краеведческий музей",
        "latitude": 59.558485,
        "longitude": 150.815368,
        "photoUrl": "https://primamedia_2537050521.s3.cloud.mts.ru/files/big/1678/1677490.jpg"
    },
    {
        "name": "Сквер Победы (Узел Памяти) — Магадан",
        "latitude": 59.563665,
        "longitude": 150.805486,
        "photoUrl": "https://mck49.ru/uploads/posts/2017-06/1498540628_monument.jpg"
    },
    {
        "name": "Магаданский музыкальный и драматический театр",
        "latitude": 59.565586,
        "longitude": 150.800211,
        "photoUrl": "https://oteatre.info/wp-content/uploads/2020/10/magadan.jpg"
    },
    {
        "name": "Магаданский областной театр кукол",
        "latitude": 59.560161,
        "longitude": 150.804275,
        "photoUrl": "https://theatrekukol.ru/uploads/posts/2021-06/1624935643_00.jpeg"
    },
    {
        "name": "Музей «Память Колымы»",
        "latitude": 62.519454,
        "longitude": 149.613840,
        "photoUrl": "https://www.nko49.ru/wp-content/uploads/2019/03/35.jpg"
    },
    {
        "name": "Музей-квартира В. А. Козина — Магадан",
        "latitude": 59.565057,
        "longitude": 150.800634,
        "photoUrl": "https://cdn.culture.ru/photoUrls/f1200c2a-c44d-5736-afc1-c40df2b221d3"
    },
    {
        "name": "Приморский океанариум Научно-образовательный комплекс",
        "latitude": 43.014276,
        "longitude": 131.930319,
        "photoUrl": "https://i5.photo.2gis.com/photoUrls/branch/0/30258560062788394_1b3a.jpg"
    },
    {
        "name": "Военно-исторический музей Тихоокеанского флота",
        "latitude": 43.114444,
        "longitude": 131.900921,
        "photoUrl": "https://fototerra.ru/photo/Russia/Vladivostok/large-276465.jpg"
    },
    {
        "name": "Борцам за Власть Советов на Дальнем Востоке 1917-1922гг, Памятник",
        "latitude": 43.115475,
        "longitude": 131.885455,
        "photoUrl": "https://top7travel.ru/wp-content/uploads/2022/04/8yayv6a7y6va786y7a.jpg"
    },
    {
        "name": "Музей истории Дальнего Востока имени В.К. Арсеньева",
        "latitude": 43.116312,
        "longitude": 131.881985,
        "photoUrl": "https://avatars.mds.yandex.net/get-altay/1886119/2a0000016ae327e91cdfe9824a5aff79d525/XXL"
    },
    {
        "name": "Приморская сцена Государственного академического Мариинского театра",
        "latitude": 43.100635,
        "longitude": 131.898223,
        "photoUrl": "https://visit-primorye.ru/upload/iblock/c3e/f_21.jpg"
    },
    {
        "name": "Приморский академический краевой драматический театр имени М. Горького",
        "latitude": 43.115868,
        "longitude": 131.893219,
        "photoUrl": "https://worldpodium.ru/sites/default/files/tula.jpg"
    },
    {
        "name": "Амурский областной театр драмы",
        "latitude": 50.259205,
        "longitude": 127.514033,
        "photoUrl": "https://fb.ru/misc/i/gallery/55971/3184564.jpg"
    },
    {
        "name": "Сахалинский областной краеведческий музей",
        "latitude": 46.95902244847989,
        "longitude": 142.74447918424318,
        "photoUrl": "https://cs13.pikabu.ru/post_img/big/2021/03/17/5/1615965620179341957.jpg"
    },
    {
        "name": "Музей истории Сахалинской железной дороги",
        "latitude": 46.96037902619447,
        "longitude": 142.72555815540716,
        "photoUrl": "https://photoUrls3.imgbox.com/ce/18/FdwJYj08_o.jpg"
    },
{"name": "Национальный музей Республики Татарстан", "latitude": 55.795712, "longitude": 49.109801, "photoUrl": "https://3pulse.com/uploads/images/sights/624262/sight_image_624262_320.jpg"},
{"name": "Музей Социалистического Быта", "latitude": 55.787088, "longitude": 49.119781, "photoUrl": "https://kuda-kazan.ru/image/370/370/uploads/1b99bdd4724cc00fac512aaa19c0eb38.jpg"},
{"name": "Музей Чак-Чака", "latitude": 55.782046, "longitude": 49.112496, "photoUrl": "https://irossiya.ru/wp-content/uploads/2023/03/Музей-чак-чака-в-Казани-300x200.jpg"},
{"name": "Музей Константина Васильева", "latitude": 55.790069, "longitude": 49.116646, "photoUrl": "https://f.otzyv.ru/f/12/02/95700/p14101809512584793085.jpg"},
{"name": "Музей иллюзий", "latitude": 55.791638, "longitude": 49.113556, "photoUrl": "https://lh3.googleusercontent.com/p/AF1QipPFvbaP0xd2ou77mMRlC_QbVaLJ37YkRKYvLims=w600-k"},
{"name": "Дом-Музей Василия Аксенова", "latitude": 55.795444, "longitude": 49.135196, "photoUrl": "https://regions.kidsreview.ru/sites/default/files/styles/card_240_160/public/10/10/2013_-_1604/dom.jpg"},
{"name": "Литературно-мемориальный музей А.М. Горького", "latitude": 55.793505, "longitude": 49.129653, "photoUrl": "https://upload.wikimedia.org/wikipedia/commons/thumb/9/93/Ттарстан._Казань._Дом%2C_в_котором_в_1886_-_1887_гг._жил_и_работал_пекарем_Горький_Алексей_Максимович.jpg/274px-thumbnail.jpg"},
{"name": "Музей чая", "latitude": 55.781008, "longitude": 49.115685, "photoUrl": "https://d19d2iasf5vyac.cloudfront.net/thumbs2/9f4bdea2-335a-11eb-92e7-b64f83127e1d.800x600.jpg"},
{"name": "Музей Е. А. Боратынского, филиал Национального музея Республики Татарстан", "latitude": 55.79387, "longitude": 49.135421, "photoUrl": "https://lh3.googleusercontent.com/p/AF1QipM9gxpH-purcF9UNBGirmznv8HO64UIGGK-LItB=w236-h160-n-k-no-v1-rj"},
{"name": "Музей оружия Дух Воина", "latitude": 55.798768, "longitude": 49.106171, "photoUrl": "https://turvopros.com/wp-content/uploads/2022/03/muzei-duh-voina-768x512.jpg"},
{"name": "Музей-квартира Мусы Джалиля", "latitude": 55.794072, "longitude": 49.132214, "photoUrl": "https://www.edemvkazan.ru/f/users/pic/2012/muzej_kvartira_musy_dzhalilja_50598eed16d74s.jpg"},
{"name": "Музей \"Городская панорама\"", "latitude": 55.796273, "longitude": 49.114247, "photoUrl": "https://i2018.otzovik.com/2018/10/04/7048112/img/42378029.jpeg"},
{"name": "Дом-музей В.И. Ленина", "latitude": 55.786915, "longitude": 49.138807, "photoUrl": "https://upload.wikimedia.org/wikipedia/commons/thumb/8/83/Татарстан._Казань._Дом%2C_в_котором_жил_В.И.Ленин_в_1883-1889_гг._В_доме_-_мемориальный_музей_В.И.Ленина.jpg/640px-thumbnail.jpg"},
{"name": "Государственный музей изобразительных искусств Республики Татарстан", "latitude": 55.794953, "longitude": 49.134909, "photoUrl": "https://eurokurort.by/images/fotobank/city/524/11635_big.jpg"},
{"name": "Самарский областной историко-краеведческий музей им. П.В. Алабина", "latitude": 53.192765, "longitude": 50.10906, "photoUrl": "https://gorodskoyportal.ru/samara/pictures/places/1505/1505_big.jpg"},
{"name": "Музей модерна", "latitude": 53.194238, "longitude": 50.096214, "photoUrl": "https://pabliko.ru/files/article_image/2023/09/09/scale_1200_21.jpeg"},
{"name": "Музей-усадьба А. Толстого. Самарский литературно-мемориальный музей им. М. Горького. Музей Буратино", "latitude": 53.193574, "longitude": 50.095729, "photoUrl": "https://sun9-42.userapi.com/impg/bz73yz92WUqrrLF0_TNkNJcHDwWjkDJsoqDY-g/vzuAcKsFbfE.jpg?size=320x213&quality=95&sign=473e021f4dfc775d8a7f0eb475dd04ff&c_uniq_tag=Z4-Uk6HK8bJZV8aNTfCk0jTjxBoi-28txa_jIBjI9FE&type=album"},
{"name": "Дом-музей В.И.Ленина в г. Самаре", "latitude": 53.193116, "longitude": 50.11082, "photoUrl": "https://samara.vektor-tour.ru/media/zoo/images/2023-02-25_103924_55965cdfa60bddc269353247d5297c4c.jpg"},
{"name": "Дом-музей М.В. Фрунзе", "latitude": 53.191546, "longitude": 50.093752, "photoUrl": "https://ezdy.ru/assets/cache_image/images/dom-muzejj-mv-frunze-samara/dom-muzejj-mv-frunze-samara01_384x256_e0a.jpg"},
{"name": "Музей Эльдара Рязанова", "latitude": 53.192695, "longitude": 50.094507, "photoUrl": "https://sun9-62.userapi.com/impg/R_8ZmfXOrxTlN_YGTyxpFSyEXOt72cIAPZkzNQ/0zgNSF_kg_8.jpg?size=130x89&quality=96&sign=a03d01c4750b6dd392e6e7a3f979956a&c_uniq_tag=QZY7nynQeWMLkcBUg0MhOj9J22QuoHzvWu19lWmGTDg&type=album"},
{"name": "Поволжский музей железнодорожной техники", "latitude": 53.222897, "longitude": 50.293232, "photoUrl": "https://67.img.avito.st/image/1/Hjf7Mra_st6Nl0DYy1IbDmORtNRFUbYsSZGw2EOXsN5P1w"},
{"name": "Музей авиации и космонавтики имени С.П. Королёва Московское ш.", "latitude": 53.195878, "longitude": 50.100202, "photoUrl": "http://museum.ru/img.asp?95819"},
{"name": "Самарский военно-исторический музей", "latitude": 53.196682, "longitude": 50.095261, "photoUrl": "https://samara-skazka.ru/thumb/2/sYKTZ8miasEnenX3-pueqQ/300r200/d/dsc2837_1200.jpg"},
{"name": "Зоологический музей им. В.Н. Темнохолмова СГСПУ Antonova-Ovseyenko", "latitude": 53.195658629268216, "longitude": 50.09953186911404, "photoUrl": "https://mk.mrgcdn.ru/51b0f071984c24fff85b07e61c37e454_w400_h400.jpg"},
{"name": "Самарский областной художественный музей", "latitude": 53.189431, "longitude": 50.089845, "photoUrl": "https://sun9-60.userapi.com/impf/c630820/v630820200/361cf/OQL_gveYUyk.jpg?size=320x213&quality=96&crop=39,0,1202,800&sign=b76dbe254eb498c83cd84e0f0028f372&c_uniq_tag=6pSkS_79VTVZEg1fOxOQGaRmmCoLrBHe-afouVRj6uA&type=album"},
{"name": "Музей лягушки", "latitude": 53.179799, "longitude": 50.075166, "photoUrl": "https://otvet.ya.guru/media/im/60/rR/60rRQXESpuuVsqyFavwcFtmqX8GWRuYJ.jpg"},
{"name": "Военно-исторический музей ПУРВО Рабочая", "latitude": 53.195878, "longitude": 50.100202, "photoUrl": "https://samara-skazka.ru/thumb/2/sYKTZ8miasEnenX3-pueqQ/300r200/d/dsc2837_1200.jpg"},
{"name": "Музей истории города Самары им. М.Д. Челышова", "latitude": 53.18329, "longitude": 50.088973, "photoUrl": "https://cloud.2markers.com/storage/60535_5778.jpg"},
{"name": "Самарский епархиальный церковно-исторический музей", "latitude": 53.205803, "longitude": 50.141372, "photoUrl": "http://ftp.museum.ru/img.asp?6565"},
{"name": "Музей Археологии Поволжья", "latitude": 53.192301, "longitude": 50.110281, "photoUrl": "https://avatars.mds.yandex.net/get-altay/216588/2a0000015b2eb1b028abaf05ec3f8be1a837/S"},
{"name": "Музей истории художественных промыслов Нижегородской Большая Покровская", "latitude": 56.326797, "longitude": 44.006516, "photoUrl": "https://cdn.culture.ru/images/8b87f98d-e829-5cd1-9e3e-d7a3eaafed62/w_400,h_292,c_fill,g_center/42fa9faa438770d62e96c15c41d6f826-jpeg"},
{"name": "Музей А.М.Горького", "latitude": 56.325918, "longitude": 44.026046, "photoUrl": "https://i.mycdn.me/getVideoPreview?id=3965573860073&idx=7&type=39&tkn=07IEGX0__JiOKzNKvi_FSxWXyk0&fn=vid_l"},
{"name": "Государственный Русский музей фотографии", "latitude": 56.323897, "longitude": 44.003139, "photoUrl": "https://sun9-8.userapi.com/impg/YF3qh_2Iv9OvxvTpifnKAtM0lzNTEnCt5MHP1w/XplESVKdSTU.jpg?size=537x240&quality=96&sign=7ec850dcef65073ef6c369e5fd0fe3c2&c_uniq_tag=43GdQugfhFUy3kbSfNYKRS2r4uLezhZTVfijn7nEkh8&type=share"},
{"name": "Технический музей Большая Покровская", "latitude": 56.326797, "longitude": 44.006516, "photoUrl": "https://avatars.mds.yandex.net/get-altay/3518606/2a0000017759e9233c02a6a06edbccda9bd2/M"},
{"name": "Музей А. Д. Сахарова", "latitude": 56.232419, "longitude": 43.95056, "photoUrl": "https://i0.wp.com/trv-science.ru/uploads/371-0056.jpg"},
{"name": "Нижегородский государственный художественный музей (русская и советская живопись)", "latitude": 56.329552, "longitude": 44.0064, "photoUrl": "https://im3.turbina.ru/photos.4/8/7/4/7/4/3247478/little.photo/Vstretcha-s-Russkoy-Venero.jpg"},
{"name": "Музей речного флота", "latitude": 56.327985, "longitude": 44.015931, "photoUrl": "https://avatars.mds.yandex.net/get-altay/200322/2a0000015b2e9d08bccdd7c0f50006ffc52e/S"},
{"name": "Нижегородский Городской Музей Техники И Оборонной Промышленности", "latitude": 56.32482, "longitude": 44.018716, "photoUrl": "https://russo-travel.ru/upload/medialibrary/583/5838a52461e669b0a6dd178f487c6b22.jpg"},
{"name": "Музей истории завода Красное Сормово", "latitude": 56.359813, "longitude": 43.870026, "photoUrl": "https://napp52.ru/wp-content/uploads/2021/03/muzej-300x200.jpg"},
{"name": "Музей Истории и Трудовой славы ГАЗ", "latitude": 56.254727, "longitude": 43.893176, "photoUrl": "http://nextews.com/images/0c/fa/0cfad7de7dae0ec2_354x242.jpg"},
{"name": "Музей истории города Уфы", "latitude": 54.7336360735005, "longitude": 55.951346541664044, "photoUrl": "https://i2019.otzovik.com/2019/10/13/8871247/img/1525220_43800609_t.jpeg"},
{"name": "Дом-музей В.И. Ленина", "latitude": 54.732881, "longitude": 55.953211, "photoUrl": "https://upload.wikimedia.org/wikipedia/commons/thumb/6/60/House-Museum_of_Vladimir_Lenin._Ufa2.jpg/164px-House-Museum_of_Vladimir_Lenin._Ufa2.jpg"},
{"name": "Республиканский историко-культурный музей-заповедник Древняя Уфа", "latitude": 54.733974025182896, "longitude": 55.9468867281723, "photoUrl": "https://drufa.ru/upload/iblock/f9f/img_3243_ejw_1280.jpg"},
{"name": "Музей современного искусства имени Наиля Латфуллина", "latitude": 54.73289755743139, "longitude": 55.94484680489321, "photoUrl": "http://ufavesti.ru/uploads/2015/01/1420701790_skachannye-fayly.jpg"},
{"name": "Музей истории Башкирской организации Всероссийского общества слепых городского округа город Уфа РБ", "latitude": 54.72892141235827, "longitude": 55.96444884854879, "photoUrl": "https://bash.ayle.ru/crop_t/225/180/images/catalog/53344.jpg"},
{"name": "Музей истории органов безопасности управления ФСБ", "latitude": 54.728530260538825, "longitude": 55.94978438095095, "photoUrl": "https://yandex-images.clstorage.net/wBA53g138/6bbe88O6CSHE/xuY9f2U5UoIk1g_zlYyndqdk_CBozD9QBEmPuBoTZ4LhUbr-RaofcrzPS-koOpkB9iRNuy-lt9JsOyPmXkglsINn7M8xKSaHYNK-BgDt1tJzhs-QuRhPwNROjDpZRZRg0zM5GCIOiuNYuw1uKRr-JYEweK65txQzmcukEZt4keUyM6nsdzjhcUc1mJPlfYFXVubtw6o5rUIXf17qyfSUEDLzSeiivzpniWkcD31YLwYB0Egcijak0znrBcB46DLlAVFavWcow1EkpjoR5p9AlKUErDCaGa2ith3MSrnGJWDTkOkL0j9YZOsJTh8f2D4kg9OYbut0dIMJ-EXyuVriNmBSW75kKCOCZ7UZAkfdg7RXhm5Rq3g_wIQ9zwiLFxaQAXNp2-APO5UaGQwNnVh-NnGx6D9KdrTwqWsH8qsZcEWhY2svx8vg0qXHaiM2jxLGRSRtwnjqzyA3jn2ZKTX34tLAiMoA3wln-zqdDI0qPqWTEtsueoe3grkrZKI5asA20mIrrZa5IQE2ZQiD1a_hddeUTOAo23_j94_vSPn1lSLhsNo6YJyLd5iZDc8OuN7UkDA5rEhVxoNLSGTAa_hyZtJwOh5V-5JAx5QYENbdoKUm9m4Cmnr98MU-TskZxRYSsLO5epAdajUL2u5Pnwq85nCDa4yqZPfAuyvn09hLI7dQQjusNImAQbdlqTElDcM3lFUdAqpKXeCFHH85WjXnY4EyK8syb8mkOjtMzywaH2aDEQm-6jeVkDsbpiFKyBPng5CI3hYrk_KHpkhCx40DV5ZGLCFZ6s1xBn-fulv3F_KAYJp4E9_4hSoZHo896p91o2GanSuGd2NaeATgm8tiRWEjur7UeHBQd0YbAcWs4zSmdL7Cinn8kwWv7IgaRRVggoG7qJF-GcdY-w7cUmvdXBw2tzIRPUgqlmWk_pr8HRywovvtGrhguXHe1Eln9EnF9VvINlqj4K0bmyrc"},
{"name": "Национальный литературный музей Республики Башкортостан", "latitude": 54.728883, "longitude": 55.976621, "photoUrl": "https://ufacitynews.ru/media/ft/e3/fe/e3fe5e3f-9a64-4d61-8207-be24aac5a94f/varwwwufacitynewsufacitynewsmediaphotoecf5d7035d7ecf.jpg__180x115_q85_crop-smart_subsampling-2.jpg"},
{"name": "Музей Министерства внутренних дел по Республике Башкортостан", "latitude": 54.726871, "longitude": 55.950013, "photoUrl": "https://avatars.mds.yandex.net/get-altay/1363707/2a00000163b680113acee41e040c074b1fd9/S"},
{"name": "Музей Почты УФПС РБ, Почта России", "latitude": 54.726418, "longitude": 55.947938, "photoUrl": "https://i.otzovik.com/objects/b/950000/943506.png"},
{"name": "Музей полярников имени В.И. Альбанова", "latitude": 54.725758, "longitude": 55.936853, "photoUrl": "https://api.rbsmi.ru/attachments/8bc5ab0672f0451843c58fd41dbeb169f9977a35/store/crop/0/0/1024/682/1024/682/0/12fd81227535a3606cfc401bda04483d2ab415688dbe30bf80208a0369e9/12e50cf2679a87dacb9ab490dd12d463.jpg"},
{"name": "Башкирский государственный художественный музей имени Михаила Васильевича Нестерова", "latitude": 54.7245174812755, "longitude": 55.93606949933623, "photoUrl": "https://ufa.bezformata.com/content/image422140319.jpg"},
{"name": "Музей развития образования Республики Башкортостан", "latitude": 54.72396760870022, "longitude": 55.937245965606685, "photoUrl": "https://avatars.mds.yandex.net/get-altay/467304/2a0000015f3cc2b1d9cbd2e827d466284e4c/M"},
{"name": "Мемориальный дом-музей Мажита Гафури", "latitude": 54.722789, "longitude": 55.936584, "photoUrl": "https://bashenc.online/upload/resize_cache/alt/b03/b030caa837f437e811b3e93106326fd3_250_150.png"},
{"name": "Музей археологии и этнографии Института этнологических исследований им. Р.Г. Кузеева", "latitude": 54.721068, "longitude": 55.939216, "photoUrl": "https://sun9-28.userapi.com/impg/I-ZSNOKeTSJXniZJnDRBBAiGc_JyzIZEEBUyiA/4Q5_WcqgHAM.jpg?size=807x464&quality=95&sign=badcbd9ab02ac1df727c034f394ed19f&c_uniq_tag=Xx289q4842yviGymtSsvu0zEyFSqVosi8lHz26IyHwM&type=album"},
{"name": "Зоологический музей Башкирского государственного университета", "latitude": 54.72013821117435, "longitude": 55.933894135075825, "photoUrl": "https://rb7.ru/system/images/image_links/490307/artufa1_130615-16.jpg__1200x900_q85_crop_subsampling-2-16-847x634.jpg"},
{"name": "Музей Башкирского государственного театра оперы и балета", "latitude": 54.722418853265495, "longitude": 55.9453068657455, "photoUrl": "https://gorobzor.ru/content/news/2020/01/radiy_habirov_obyavil_golosovanie_o_prisvoenii_bashkirskomu_dramteatru_imeni_rudolfa_nurieva_thumb_5e298cfc068ae1.96942705.jpg"},
{"name": "Национальный музей Республики Башкортостан", "latitude": 54.72013389739121, "longitude": 55.946777949073734, "photoUrl": "https://trishurupa.ru/wp-content/uploads/2013/10/post_8831.jpg"},
{"name": "Дом-музей Ш. Худайбердина", "latitude": 54.719368, "longitude": 55.955825, "photoUrl": "https://sun9-15.userapi.com/impg/kx5DREXHa649Z_agudLo8D230xIINXP_FN5zoQ/IYYB924OZq4.jpg?size=604x453&quality=96&sign=0bca868c3e9e265a5a60713bf30d1bba&type=album"},
{"name": "Музей истории парламента Республики Башкортостан", "latitude": 54.717792, "longitude": 55.946339, "photoUrl": "http://bbb.kcobrb.ru/upload/resize_cache/alt/288/2880fa814497f402224feff320e3d256_250_150.png"},
{"name": "Мемориальный дом-музей А.Э. Тюлькина", "latitude": 54.714724, "longitude": 55.945432, "photoUrl": "https://kulturarb.ru/media/zoo/images/1-1-6_5a7fed0698f6210b8db325498b85d7fb.jpg"},
{"name": "Дом-музей С.Т. Аксакова", "latitude": 54.713455, "longitude": 55.951603, "photoUrl": "https://rb7.ru/system/images/image_links/741200/page_medium_4c11f4facd72f3e7e1ca1c98757e8308.jpg"},
{"name": "Музей Пермского отделения Свердловской железной дороги", "latitude": 57.996482, "longitude": 56.188732, "photoUrl": "https://cdn1.flamp.ru/03c4dab7e94dd17c05de4bb78adff9c0_320.JPG"},
{"name": "Пермская государственная художественная галерея", "latitude": 58.016414, "longitude": 56.234689, "photoUrl": "https://top7travel.ru/wp-content/uploads/2022/11/s7f8s7d9f79sd8f7-300x200.jpg"},
{"name": "Музей пермских древностей", "latitude": 58.014126, "longitude": 56.24546, "photoUrl": "https://i0.wp.com/pushkinsdelal.ru/wp-content/uploads/2022/02/Perm4-1024x768.jpg?resize=512%2C384&ssl=1"},
{"name": "ГБУК Пермского края Мемориальный музей-заповедник истории политических репрессий Пермь-36", "latitude": 58.020128, "longitude": 56.270874, "photoUrl": "https://media.nakanune.ru/images/pictures/image_66648.jpg"},
{"name": "МУЗЕЙ ИСТОРИИ САРАТОВСКОЙ МИТРОПОЛИИ", "latitude": 51.525679, "longitude": 46.027295, "photoUrl": "https://asrmod.ru/images/joomgallery/thumbnails/2021_35/______68/______20220827_1900467753.jpg"},
{"name": "Музей самоваров", "latitude": 51.536996, "longitude": 46.030852, "photoUrl": "https://im3.turbina.ru/photos.4/0/6/6/8/4/3248660/little.photo/Unikalnyy-muzey-samovaro.jpg"},
{"name": "Саратовский областной музей краеведения", "latitude": 51.527567, "longitude": 46.056023, "photoUrl": "https://i.ytimg.com/vi/fjKBjvA7b3I/hqdefault.jpg"},
{"name": "Музей речного флота", "latitude": 51.521095, "longitude": 46.006301, "photoUrl": "https://im3.turbina.ru/photos.4/3/7/6/8/6/2468673/little.photo/Muzey-retchnogo-flota.jpg"},
{"name": "Музей истории саратовской полиции", "latitude": 51.5441676271089, "longitude": 46.00809231349183, "photoUrl": "https://static.mvd.ru/upload/site86/document_images/!DSC_9486-188xx140.jpg"},
{"name": "Тольяттинский краеведческий музей", "latitude": 53.501935997704685, "longitude": 49.42072019577029, "photoUrl": "https://st.volga.news/image/w360/h240/fixed/3e39eaf8-3e0c-4386-a7f1-016f1a285028.jpg"},
{"name": "Музей ОАО АВТОВАЗ", "latitude": 53.552367, "longitude": 49.272153, "photoUrl": "https://ru.tripaggregator.com/photos/7045518.jpeg"},
{"name": "Тольяттинский художественный музей", "latitude": 53.50314492328798, "longitude": 49.420269589627814, "photoUrl": "https://tltgorod.ru/pics/201806/600_12_n1089290.jpg"},
{"name": "Музей Тольяттинского Государственного Университета", "latitude": 53.500665, "longitude": 49.397908, "photoUrl": "https://sun9-41.userapi.com/impf/c626626/v626626872/91241/j28FUAKthu4.jpg?size=130x85&quality=96&sign=5a32cd5c24b65c58e16feda9414481b6&c_uniq_tag=AX1n7JEL77THO-CoeK5nL-ttG63ifNZkvH2CEDaOuCU&type=album"},
{"name": "Национальный Музей Удмуртской Республики", "latitude": 56.842393, "longitude": 53.228504, "photoUrl": "https://sun1-18.userapi.com/impf/cJ6PG3kS0zR_ZxnrOOIjVwhb3sXIpzolsiQxjA/SA6DsonYkgA.jpg?size=135x92&quality=95&crop=29,0,2497,1700&sign=83c7a549c6a79315a04386d0c9b7724a"},
{"name": "Музей Хлеба", "latitude": 56.872826, "longitude": 53.260026, "photoUrl": "https://sun9-37.userapi.com/impg/mokGvI0eZovzFLaeIHHOQXEfuSoy-J4sUlAgdw/xAg8bzHQd3o.jpg?size=604x471&quality=96&sign=46c41f0037beb184e3c9a11f294af130&c_uniq_tag=pMAZkacRwrwKbF60Qny6qTVzs4InCVkkefRmBosNJAA&type=album"},
{"name": "Музей Ижевского Автомобильного Завода", "latitude": 56.886263, "longitude": 53.309631, "photoUrl": "https://geelyemgrand.ru/wp-content/uploads/2020/10/17-768x432.jpg"},
{"name": "Музей Ижевска", "latitude": 56.84676, "longitude": 53.19789, "photoUrl": "https://aif-s3.aif.ru/images/011/618/9340fb926508719a5ca275e1444d73d9.jpg"},
{"name": "Музейно-выставочный комплекс стрелкового оружия им. М.Т. Калашникова", "latitude": 56.850742, "longitude": 53.20672, "photoUrl": "https://moyaokruga.ru/img/image_detail_new2/1a55d457-2d9a-4cbd-9a48-9a5ff62d230d.jpg"},
{"name": "Ульяновский областной краеведческий музей им. И.А. Гончарова", "latitude": 54.315363, "longitude": 48.405557, "photoUrl": "https://mfc.ulgov.ru/upload/iblock/398/tttk1tkbiqq685i0r3wu3jde4w3pwn09.jpg"},
{"name": "Симбирская Классическая Гимназия Музей", "latitude": 54.31609496725722, "longitude": 48.40299244113913, "photoUrl": "https://tur-ray.ru/wp-content/uploads/2018/01/muzey-simbirskaya-klassicheskaya-gimnaziya-768x512.jpg"},
{"name": "Ульяновский областной художественный музей", "latitude": 54.315363, "longitude": 48.405557, "photoUrl": "https://нацпроекты73.рф/wp-content/uploads/apollo13_images/d183d0b6d0b5-d0b2-d0b0d0b2d0b3d183d181d182d0b5-d0bed0b1d0bdd0bed0b2d0bbd0b5d0bdd0bdd18bd0b9-d0bed0b1d0bbd0b0d181d182d0bdd0bed0b9-d185-7dw06c8qngmjiw5jl2kpth644zcxj32wh6.jpg"},
{"name": "Музей воды", "latitude": 55.663116, "longitude": 52.276326, "photoUrl": "https://saletur.ru/galery/tfoto_sights/small/28395.jpg"},
{"name": "Историко-краеведческий музей города Набережные Челны", "latitude": 55.685762, "longitude": 52.295568, "photoUrl": "https://sun6-22.userapi.com/impg/JqM28MHcWC_Z2XVFf143nsaSjBfXD9w2SHluXw/WWBVhZ7VLHI.jpg?size=604x402&quality=96&sign=a7bbe1ea6998b0987535ef5477bbe831&c_uniq_tag=xC2W701MxgX32lMXxdhQtn3fatBtTnzz0w4XLhnNME8&type=album"},
{"name": "Музей истории пожарной охраны", "latitude": 55.75725408838926, "longitude": 52.451413280426, "photoUrl": "https://вдпо.рф/img/calendar/preview/p_d6f1322c-a705-4e03-8f74-55d0d5a429a9.jpg"},
{"name": "Музей Боевой Славы (ВОВ, Афганистан, Кавказ)", "latitude": 55.728991, "longitude": 52.406627, "photoUrl": "https://sun9-73.userapi.com/impg/zdpAFHiFaLsWg23hqwa0RUYYaPY5AuJG_d_UMA/-U71i19i28M.jpg?size=200x150&quality=95&sign=927d6c17006e797aab5238ca79eaeab5&c_uniq_tag=EUaueWBrvt3Kt-HAQiU_BXvqQFf40SSRgGgK3mYgstE&type=album"},
{"name": "Оренбургский губернаторский историко-краеведческий музей", "latitude": 51.762057, "longitude": 55.102219, "photoUrl": "http://museum.ru/img.asp?6142"},
{"name": "Музей истории Оренбурга", "latitude": 51.755523, "longitude": 55.10849, "photoUrl": "https://orenburg.bezformata.com/content/image648236150.jpg"},
{"name": "Народный музей защитников Отечества", "latitude": 51.77948103958744, "longitude": 55.086406881614664, "photoUrl": "https://kcson-ors.orb.ru/upload/resize_cache/alt/f08/f082a2fda038e83ae82c7fe3c3b76e61_136_85.png"},
{"name": "Мемориальный музей-гауптвахта Тараса Шевченко", "latitude": 51.76051735005804, "longitude": 55.10328859391786, "photoUrl": "https://sovetclub.ru/tim/c48761606ac544923925f796b52eb600.jpg"},
{"name": "Галерея выдающихся оренбуржцев", "latitude": 51.764453, "longitude": 55.100108, "photoUrl": "https://avatars.mds.yandex.net/get-altay/2408669/2a00000171f44e75d6b43af7506476a6ff2a/M"},
{"name": "Пензенский государственный краеведческий музей", "latitude": 53.186361, "longitude": 45.007545, "photoUrl": "https://fb.ru/misc/i/thumb/a/3/1/9/6/2/4/8/3196248.jpg"},
{"name": "ГБУК Пензенская областная картинная галерея имени К.А. Савицкого", "latitude": 53.184958, "longitude": 45.010168, "photoUrl": "https://smi58.ru/upload/resize_cache/iblock/403/217_151_2/40334a52948e6b88fc247d67019d4d46.jpg"},
{"name": "ГБУК Объединение государственных литературно-мемориальных музеев Пензенской области", "latitude": 53.185379, "longitude": 45.016214, "photoUrl": "https://cdn.culture.ru/images/2f6e514c-e8fc-51e3-8c35-592508826710/c_fill,g_center,w_400,h_292/e62412670f710c2314c1265245103e82.jpg"},
{"name": "Музей народного творчества", "latitude": 53.175238, "longitude": 45.005551, "photoUrl": "https://narovchat-shkol.ucoz.ru/2018/5/5910974531576824_174e.jpg"},
{"name": "Дом-музей В. О. Ключевского", "latitude": 53.191988, "longitude": 45.007707, "photoUrl": "https://ezdy.ru/assets/cache_image/images/muzejj-vo-kljuchevskogo-penza/muzejj-vo-kljuchevskogo-penza01_384x256_e0a.jpg"},
{"name": "Чувашский государственный художественный музей", "latitude": 56.141147, "longitude": 47.261167, "photoUrl": "https://top10.travel/wp-content/uploads/2017/09/chuvashskiy-hudozhestvennyj-muzey-364x243.jpg"},
{"name": "Центр современного искусства", "latitude": 56.14565, "longitude": 47.248168, "photoUrl": "https://konspekta.net/poisk-ruru/baza7/5488573565344.files/image015.jpg"},
{"name": "Музей академика-кораблестроителя А.Н. Крылова", "latitude": 56.131782, "longitude": 47.24515, "photoUrl": "https://www.polytech21.ru/ship/images/nov/DSC_4682-2.jpg"},
{"name": "Археолого-этнографический музей имени профессора Каховского Василия Филипповича", "latitude": 56.139095, "longitude": 47.244916, "photoUrl": "https://chuvashia.ayle.ru/crop_t/330/160/images/catalog/766881.jpg"},
{"name": "Музей В.И. Чапаева", "latitude": 56.116167, "longitude": 47.257376, "photoUrl": "https://www.cheboksary.ru/images/113763_s.jpg"},
{"name": "Музей истории Екатеринбурга", "latitude": 56.840779, "longitude": 60.611506, "photoUrl": "http://letopisi.org/images/thumb/5/54/Екатеринбург._Музей_истории_Екатеринбурга.jpeg/400px-Екатеринбург._Музей_истории_Екатеринбурга.jpeg"},
{"name": "Музей Святой Царской Семьи", "latitude": 56.843693, "longitude": 60.60847, "photoUrl": "https://ekaterinburg.bezformata.com/content/image257108389.jpg"},
{"name": "Екатеринбургский музей изобразительных искусств", "latitude": 56.835165, "longitude": 60.603215, "photoUrl": "https://media.izi.travel/f04513b2-fc20-40e3-a0bc-d8399443adc7/5bd6463b-22b1-43c9-972d-a6ec5912e061_800x600.jpg"},
{"name": "Сделано в СССР", "latitude": 56.839922, "longitude": 60.634844, "photoUrl": "https://avatars.mds.yandex.net/get-altay/1938975/2a0000016e89adee67eb4bc5ee92b0db2543/M"},
{"name": "Уральский геологический музей", "latitude": 56.826511332170824, "longitude": 60.595503804229715, "photoUrl": "https://static.gorpom.ru/images/common/galleries/10497545/preview_ps/bab3bb6057cf52e221a1b328ce249d38.jpg"},
{"name": "Музей первого президента России Б.Н. Ельцина", "latitude": 56.844894, "longitude": 60.591438, "photoUrl": "https://beaworldfestival.com/wp-content/uploads/2016/02/acciona.jpg"},
{"name": "Музей радио им. А. С. Попова", "latitude": 56.833476, "longitude": 60.613006, "photoUrl": "https://www.radiomuseum.org/museum/rus/a.s.-popov-museum-of-radio-ekaterinburg/thumbnails/jekaterinburg_radio_museum07.jpg"},
{"name": "Музей В. С. Высоцкого", "latitude": 56.844604, "longitude": 60.7007, "photoUrl": "http://www.kemerinfo.ru/IMG_BAZA/200000000006451big.jpg"},
{"name": "Музей кукол и детской книги Страна чудес", "latitude": 56.843432, "longitude": 60.606512, "photoUrl": "https://upload.wikimedia.org/wikipedia/commons/thumb/f/f0/Екатеринбург_0024_Музей_кукол_и_детской_книги_Страна_чудес.jpg/300px-Екатеринбург_0024_Музей_кукол_и_детской_книги_Страна_чудес.jpg"},
{"name": "Музей изобразительных искусств", "latitude": 55.1593, "longitude": 61.404224, "photoUrl": "https://wearts.ru/images/museums/t123.jpg"},
{"name": "Музей леса", "latitude": 55.141423, "longitude": 61.367798, "photoUrl": "https://mostylib.by/wp-content/uploads/Копия-лоси.jpg"},
{"name": "Музей ЧТЗ", "latitude": 55.160571, "longitude": 61.434264, "photoUrl": "https://avatars.mds.yandex.net/get-discovery-int/1339925/2a000001891d79a39e1a63e7b6c3c6b4c26c/M"},
{"name": "Музей истории", "latitude": 55.168331, "longitude": 61.397487, "photoUrl": "https://sun9-48.userapi.com/impf/hLnOFUzKaMTgBUpX_xxDOTNainv0KINC9VWtqA/8llWoImHXik.jpg?size=320x240&quality=96&sign=2a59e7c33e4873a4b6003722415e6154&c_uniq_tag=F4TZvzveETaYvMYKAgVecwWCOCnIJYIT50843lhsmXc&type=album"},
{"name": "Музей памяти воинов-интернационалистов", "latitude": 55.132109, "longitude": 61.435091, "photoUrl": "https://avatars.mds.yandex.net/get-altay/1881820/2a0000016ae2ff947b8163f6e4939bf178e9/L"},
{"name": "Музей археологии и этнографии", "latitude": 57.159526, "longitude": 65.530977, "photoUrl": "https://sun9-24.userapi.com/impf/6_Z6HlyUKQOp-yTt-OPh2Xfk5zBjNLHjYNXZOw/SngylwLUeJI.jpg?size=320x180&quality=96&sign=caee3ce9f70afa7e3b39c5d17c30dafa&c_uniq_tag=XdyJnkwehTUhqLyhodQ-pN9BpyNjRAmXOweKS31RiiY&type=video_thumb"},
{"name": "Музейный комплекс им. И. Я. Словцова", "latitude": 57.153776, "longitude": 65.550453, "photoUrl": "https://kvobzor.ru/u/news/6bc717762c1de9f5bed6d0c19634af.jpg"},
{"name": "Музей Царская пристань", "latitude": 57.163016, "longitude": 65.558394, "photoUrl": "https://sun9-78.userapi.com/impg/BESh-1xDd85B-vK2yfOtWg9kA6ZEm8wpvBcbWg/emE-IAM9E_s.jpg?size=604x399&quality=95&sign=fe64c2e2474ca89ef75354bb00726744&type=album"},
{"name": "Музей тюменских историй", "latitude": 57.15629, "longitude": 65.537427, "photoUrl": "https://img.tourister.ru/files/3/3/0/0/1/7/4/8/clones/870_581_fixedwidth.jpg"},
{"name": "Музей современного искусства", "latitude": 57.152335, "longitude": 65.550875, "photoUrl": "https://avatars.mds.yandex.net/get-altay/1546239/2a0000016f23224d290c0c8c3edc6b355156/h220"},
{"name": "Музей кузнечного мастерства", "latitude": 57.177929, "longitude": 65.47583, "photoUrl": "https://i6.photo.2gis.com/images/branch/13/1829587351878930_67cf_328x170.jpg"},
{"name": "Музей Дом Машарова", "latitude": 57.158018, "longitude": 65.526351, "photoUrl": "https://i3.photo.2gis.com/images/branch/13/1829587361180348_c52c_328x170.jpg"},
{"name": "Музей военной техники", "latitude": 53.39155, "longitude": 58.995257, "photoUrl": "https://smorodina.com/uploads/image/image/84352/objsecthumb__________-_isilgan.ru.jpg"},
{"name": "Музей ПАО «ММК»", "latitude": 53.393623, "longitude": 59.060744, "photoUrl": "https://news.store.rambler.ru/img/be8af07a1ca1e4a319c331014dcded16?img-format=auto&img-1-resize=width:440"},
{"name": "Музей Истории Магнитостроя", "latitude": 53.395996, "longitude": 58.96369, "photoUrl": "https://media-cdn.tripadvisor.com/media/photo-s/13/3f/d0/c3/caption.jpg"},
{"name": "Магнитогорская картинная галерея", "latitude": 53.408371, "longitude": 58.981288, "photoUrl": "https://magnitogorsk.bezformata.com/content/image433486311.jpg"},
{"name": "Музей ветеранов боевых действий", "latitude": 53.43261, "longitude": 58.983193, "photoUrl": "https://www.zs74.ru/sites/default/files/styles/w240/public/1688631484699.jpg?itok=Z-EJwq2X"},
{"name": "Сургутский Художественный Музей", "latitude": 61.253797, "longitude": 73.423144, "photoUrl": "https://informugra.ru/upload/resize_cache/iblock/59b/352_198_2/bf5f4aoqs9544ub1j7pe2gwy7n0waad8.jpg"},
{"name": "Центр патриотического наследия", "latitude": 61.235085, "longitude": 73.402582, "photoUrl": "https://avatars.mds.yandex.net/get-altay/2094876/2a0000016d6f68b797eaf95537be15b7358d/S"},
{"name": "Школа-Музей имени А.С.Знаменского", "latitude": 61.235843, "longitude": 73.409508, "photoUrl": "https://cdn.culture.ru/images/04c25e94-054b-5ea9-bc08-9ec8033d2634/w_397,h_284,c_fill,g_center/f1363ab92b58b596f701873025f71efa-jpg"},
{"name": "Музей истории подносного промысла «Дом Худояровых»", "latitude": 57.908064, "longitude": 59.938668, "photoUrl": "https://i.ekmap.ru/1/1/8/6/0/thumbs/100_75_thumb.jpg"},
{"name": "Мемориально-литературный музей писателя А.П. Бондина", "latitude": 57.904138, "longitude": 59.961737, "photoUrl": "https://i2.photo.2gis.com/images/branch/0/30258560050845936_e39d_328x170.jpg"},
{"name": "Музей Демидовская Дача", "latitude": 57.894314, "longitude": 60.003104, "photoUrl": "https://upload.wikimedia.org/wikipedia/commons/thumb/9/92/Вид_на_дачу_со_стороны_пруда.jpg/240px-Вид_на_дачу_со_стороны_пруда.jpg"},
{"name": "Музей Памяти Воинов-Тагильчан", "latitude": 57.899528, "longitude": 59.992333, "photoUrl": "https://avatars.mds.yandex.net/get-altay/223006/2a0000015b3bc1f0d7f67d3b95e69549795b/S"},
{"name": "Историко-технический музей «Дом Черепановых»", "latitude": 57.907562, "longitude": 59.971474, "photoUrl": "https://konspekta.net/megaobuchalkasu/baza5/5165379140.files/image132.jpg"},
{"name": "Музей военной техники", "latitude": 55.455698, "longitude": 65.321759, "photoUrl": "https://zvonkoff.net/uploads/organizations/images/7/3/5/2/73522258013_thumbnail_2.jpg"},
{"name": "Музей трудовой и боевой славы Курганского завода химического машиностроения", "latitude": 55.463779, "longitude": 65.347092, "photoUrl": "https://i5.photo.2gis.com/images/branch/10/1407374895850223_f195_328x170.jpg"},
{"name": "Музей боевой славы 165-й Седлецкой Краснознаменной ордена Кутузова II степени стрелковой дивизии", "latitude": 55.45046, "longitude": 65.365489, "photoUrl": "http://old.79sd.ru/thumbs/w200-h160-c20.16/images/gallery/muzey/816/ex/212.jpg"},
{"name": "Курганский областной краеведческий музей", "latitude": 55.440493, "longitude": 65.33739, "photoUrl": "https://img.rl0.ru/c9aa9810849d288820025af924ab9b88/c300x135i/https/store.rambler.ru/news/img/fe8f539adb6518db8734b81397458583"},
{"name": "Музей истории города", "latitude": 55.434727, "longitude": 65.348664, "photoUrl": "https://lh5.googleusercontent.com/p/AF1QipNcxEUGWhAKChsqSi3-a3ZjUU6-juXIu8sEtV_m=w592-h404-n-k-no-v1"},
{"name": "Дом-музей В. К. Кюхельбекера", "latitude": 55.430988, "longitude": 65.340849, "photoUrl": "https://mk.mrgcdn.ru/aa72169b81c63e1aedafed45dcedfea0_w300_h201.jpeg"},
{"name": "Экспозиционно-выставочный отдел Народная галерея", "latitude": 55.437848, "longitude": 65.35232, "photoUrl": "https://static-pano.maps.yandex.ru/v1/?panoid=1463582457_676551278_23_1531134679&size=500%2C240&azimuth=140.3&tilt=10&api_key=maps&signature=L4ass51xetDLb55UiXwsepP-Lry-0Cm2kZpXfpVb0Qs="},
{"name": "Музей колледжа", "latitude": 55.431208, "longitude": 65.306246, "photoUrl": "https://www.vavilovsar.ru/files/pages/38516/15417632104_min.jpg"},
{"name": "Музей истории русского быта", "latitude": 60.906834, "longitude": 76.619188, "photoUrl": "https://sun9-18.userapi.com/impf/c622716/v622716395/34b3f/Vh5--QY8Mvg.jpg?size=320x240&quality=96&sign=d77d470ba5c81c2fc78b3efb7edb41b2&c_uniq_tag=smfs8Uq-kINfcX0GPLy8LigiJKWx-AvpBjWOw7WijlQ&type=album"},
{"name": "Краеведческий музей имени Т.Д. Шуваева", "latitude": 60.940249, "longitude": 76.561426, "photoUrl": "https://sun9-34.userapi.com/c633929/v633929167/30fb0/rWUrmb_CJOw.jpg"},
{"name": "Каменск-Уральский Краеведческий Музей им. И.Я.Стяжкина", "latitude": 56.418826, "longitude": 61.892144, "photoUrl": "https://avatars.mds.yandex.net/get-altay/2755030/2a0000017226965181814e7e58083295dd6d/M_height"},
{"name": "Металург", "latitude": 55.17987028417672, "longitude": 59.65483132717419, "photoUrl": "https://sun9-30.userapi.com/impg/o6arnMQsBW1kpteNg85E0b7K9WDKjG9W4s_TwQ/PL-evo_0x_k.jpg?size=537x240&quality=96&crop=0,0,900,402&sign=3aa2f3c7773ac697eb196ca666f35912&c_uniq_tag=7zV0Ac2ytzGHO-IzkK1eDgigAfeAGCcp3ETgHAUjLRU&type=share"},
{"name": "Ильменский Государственный заповедник", "latitude": 55.133236, "longitude": 60.247275, "photoUrl": "http://www.weter-tur.ru/ekskursii-po-rossii/ekskursionnye-programmy-po-uralu/ekskursii-po--uralu-v-sostave-sbornoj-gruppy/miass-ozero-turgoyak-i-progulka-na-ostrov-very/filedirectory/787/80.jpg"},
  {
    "name": "Дом-музей И. П. Морозова",
    "latitude": 61.67259571967766,
    "longitude": 50.840373498693104,
    "photoUrl": "https://appreal.org/wp-content/uploads/2020/04/38-11-21-300x225.jpg"
  },
  {
    "name": "Пожарная каланча Сыктывкара",
    "latitude": 61.673001,
    "longitude": 50.837413,
    "photoUrl": "https://caleche.org/img/puti-2021/2124/image_2r8b66GctauP.jpg"
  },
  {
    "name": "Национальная галерея Республики Коми",
    "latitude": 61.669569,
    "longitude": 50.842472,
    "photoUrl": "https://rah.ru/upload/resize_cache/iblock/f7b/300_300_2/f7bd8bffb656180e29a759fd09a48512.jpg"
  },
  {
    "name": "Национальный музей Республики Коми",
    "latitude": 61.66909,
    "longitude": 50.83829,
    "photoUrl": "https://cdn.culture.ru/images/04aae7f3-082a-5d2b-8429-575d0d7ea666/w_400,h_292,c_fill,g_center/8953e8163f3acbbf2a2e7e32d5b7fef9-jpg"
  },
  {
    "name": "Кылтовский крестовоздвиженский монастырь",
    "latitude": 62.320529,
    "longitude": 50.994444,
    "photoUrl": "https://myslide.ru/documents_7/754c3d02f5be625255c0cefa33846ce2/img39.jpg"
  },
  {
    "name": "Археологический памятник Мамонтовая Курья",
    "latitude": 66.607333,
    "longitude": 62.53451,
    "photoUrl": "https://witchnest.ru/uploads/posts/2022-09/medium/20a18275d136c758a88f2106016061e1.webp"
  },
  {
    "name": "Стоянки Бызовая и Крутая Гора",
    "latitude": 64.975556,
    "longitude": 59.528889,
    "photoUrl": "https://dostoyanieplaneti.ru/media/k2/galleries/5271/8687678676.jpg"
  },
  {
    "name": "Свято-Стефановский Кафедральный собор в Сыктывкаре",
    "latitude": 61.677814,
    "longitude": 50.831633,
    "photoUrl": "https://sun9-43.userapi.com/impg/MSkVeD4uXnLssQVGFmhNILlpGWRlaXcFPEB6iQ/QbqF_YvUZQ4.jpg?size=604x402&quality=95&sign=1091158ed148869f8afda2ba800f382f&type=album"
  },