[
{"name": "Дом-музей И. П. Морозова", "latitude": 61.67259571967766, "longitude": 50.840373498693104},
{"name": "Пожарная каланча Сыктывкара", "latitude": 61.673001, "longitude": 50.837413},
{"name": "Национальная галерея Республики Коми", "latitude": 61.669569, "longitude": 50.842472},
{"name": "Национальный музей Республики Коми", "latitude": 61.66909, "longitude": 50.83829},
{"name": "Кылтовский крестовоздвиженский монастырь", "latitude": 62.320529, "longitude": 50.994444},
{"name": "Археологический памятник Мамонтовая Курья", "latitude": 66.607333, "longitude": 62.53451},
{"name": "Стоянки Бызовая и Крутая Гора", "latitude": 64.975556, "longitude": 59.528889},
{"name": "Свято-Стефановский Кафедральный собор в Сыктывкаре", "latitude": 61.677814, "longitude": 50.831633},
{"name": "Музей-заповедник «Пустозерск»", "latitude": 67.6413, "longitude": 53.0070833},
{"name": "Шоинский маяк", "latitude": 67.879182, "longitude": 44.138176},
{"name": "Маяк Ходовариха", "latitude": 68.932776, "longitude": 53.762628},
{"name": "Ненецкий краеведческий музей", "latitude": 67.64048, "longitude": 53.010441},
{"name": "Заброшенный поселок Рудник", "latitude": 65.031667, "longitude": 53.969167},
{"name": "Памятный знак Голова Ленина", "latitude": 67.816646, "longitude": 34.84826},
{"name": "здание администрации Ненецкого АО", "latitude": 67.6388917, "longitude": 53.0056361},
{"name": "здание главпочтамта Ненецкого,  АО", "latitude": 67.639213562, "longitude": 53.007827759},
{"name": "Памятник «Подвигу участников оленно-транспортных батальонов»", "latitude": 67.64, "longitude": 53.01056},
{"name": "Памятник труженикам Печорского лесозавода", "latitude": 67.669824, "longitude": 53.096809},
{"name": "Памятник Яку-7Б", "latitude": 67.669824, "longitude": 53.096809},
{"name": "Этнокультурный центр Ненецкого автономного округа", "latitude": 67.640461, "longitude": 53.003447},
{"name": "Космодром Плесецк", "latitude": 62.96, "longitude": 40.68},
{"name": "Соловецкий монастырь", "latitude": 65.024729, "longitude": 35.709728},
{"name": "Малые Корелы", "latitude": 64.452927, "longitude": 40.931691},
{"name": "Каргополье", "latitude": 55.955556, "longitude": 64.433333},
{"name": "Историко-мемориальный музей М. В. Ломоносова", "latitude": 64.22972, "longitude": 41.73361},
{"name": "Антониево-Сийский монастырь", "latitude": 63.5539, "longitude": 41.556},
{"name": "Церковь Иоанна Златоуста в Саунино", "latitude": 61.50498, "longitude": 39.11612},
{"name": "Введенский собор в Сольвычегодске", "latitude": 61.3326778, "longitude": 46.9263083},
{"name": "Северный морской музей", "latitude": 64.5339, "longitude": 40.5168},
{"name": "Новодвинская крепость", "latitude": 64.699981, "longitude": 40.417537},
{"name": "Музей деревянного зодчества «Малые Корелы»", "latitude": 64.454843, "longitude": 40.951519},
{"name": "музей полярного капитана Александра Кучина", "latitude": 64.22692, "longitude": 41.838274},
{"name": "Онежский историко-мемориальный музей", "latitude": 63.898530715044, "longitude": 38.129629777158},
{"name": "Сретено-Михайловская церковь", "latitude": 61.59867, "longitude": 38.661435},
{"name": "Пинежский краеведческий музей", "latitude": 64.698563, "longitude": 43.394333},
{"name": "музей домовых росписей Поважья", "latitude": 61.077161, "longitude": 42.111916},
{"name": "Кожеозерский Богоявленский женский монастырь", "latitude": 63.1578, "longitude": 38.083},
{"name": "Макарьевская Хергозерская пустынь", "latitude": 61.8413, "longitude": 38.252968},
{"name": "Холмогорский краеведческий музей", "latitude": 64.226855, "longitude": 41.645605},
{"name": "Каргопольский музей", "latitude": 61.502904, "longitude": 38.943331},
{"name": "Дом Пикуля", "latitude": 56.346846, "longitude": 43.847955},
{"name": "Церковь Троицы Живоначальной в Ухте", "latitude": 61.193259, "longitude": 38.567944},
{"name": "Кирилло-Белозерский монастырь", "latitude": 59.856507, "longitude": 38.369435},
{"name": "Вологодский кремль", "latitude": 59.224117, "longitude": 39.881791},
{"name": "Ферапонтов Белозерский монастырь", "latitude": 59.956496, "longitude": 38.567472},
{"name": "Картуши в Тотьме", "latitude": 59.97378, "longitude": 42.765161},
{"name": "Белозерский кремль", "latitude": 60.030953, "longitude": 37.788606},
{"name": "Соборное дворище", "latitude": 60.7608, "longitude": 46.2972},
{"name": "Троице-Гледенский монастырь", "latitude": 60.7177111, "longitude": 46.3137944},
{"name": "Архитектурно-этнографический музей «Семёнково»", "latitude": 59.2786646119338, "longitude": 39.715944191154456},
{"name": "Музей кружева в Вологде", "latitude": 59.223904, "longitude": 39.884875},
{"name": "Усадьба Брянчаниновых", "latitude": 59.0344806, "longitude": 39.9564944},
{"name": "Усадьба Хвалёвское", "latitude": 58.983371, "longitude": 36.58357},
{"name": "Усадьба Батюшковых", "latitude": 58.715111, "longitude": 36.443694},
{"name": "Усадьба Галльских", "latitude": 59.60353, "longitude": 29.66478},
{"name": "Спасо-Прилуцкий монастырь", "latitude": 59.2622008, "longitude": 39.8895258},
{"name": "Воскресенский собор в Череповце", "latitude": 59.119157, "longitude": 37.92845},
{"name": "Горицкий Воскресенский монастырь", "latitude": 59.864434, "longitude": 38.26144},
{"name": "Дом-музей Петра I", "latitude": 59.209985, "longitude": 39.908191},
{"name": "Музей «Вологодская ссылка»", "latitude": 59.215811, "longitude": 39.884481},
{"name": "Музей металлургической промышленности", "latitude": 59.133528533158405, "longitude": 37.84594819858926},
{"name": "Музей «Подводная лодка Б-440»", "latitude": 60.998236, "longitude": 36.433181},
{"name": "Дом Засецких", "latitude": 59.22389, "longitude": 39.87639},
{"name": "Дом-музей А. Ф. Можайского", "latitude": 59.199151, "longitude": 39.904215},
{"name": "Успенская Нелазская церковь", "latitude": 59.189056, "longitude": 37.64331},
{"name": "Ферапонтов монастырь", "latitude": 59.956664, "longitude": 38.567499},
{"name": "Зелёная планета ФосАгро", "latitude": 59.1507, "longitude": 37.8271},
{"name": "Камерный театр в Череповце", "latitude": 59.124694824, "longitude": 37.929988861},
{"name": "музей «Дом И. А. Милютина»", "latitude": 59.118698, "longitude": 37.925378},
{"name": "Кузница мастера", "latitude": 58.84296487482654, "longitude": 36.43453240211713},
{"name": "Казанская церковь в Устюжне", "latitude": 58.839003, "longitude": 36.457081},
{"name": "Церковь Благовещения Пресвятой Богородицы в Устюжне", "latitude": 58.840284, "longitude": 36.429612},
{"name": "краеведческий музей в Тотьме", "latitude": 59.9758, "longitude": 42.7631},
{"name": "Музей мореходов в Тотьме", "latitude": 59.975255, "longitude": 42.751762},
{"name": "Музей церковной старины в Тотьме", "latitude": 59.969731, "longitude": 42.764724},
{"name": "храм Троицы в Зеленской слободе", "latitude": 59.968014, "longitude": 42.753133},
{"name": "храм Рождества Христова в Тотьме", "latitude": 59.974744, "longitude": 42.754385},
{"name": "храмовый комплекс Соборного дворища в Великом Устюге", "latitude": 60.76052, "longitude": 46.298348},
{"name": "Михайло-Архангельский монастырь в Великом Устюге", "latitude": 62.223279, "longitude": 50.399606},
{"name": "Музей новогодней и рождественской игрушки", "latitude": 60.753, "longitude": 46.3117},
{"name": "Кольская сверхглубокая скважина", "latitude": 69.396326, "longitude": 30.609513},
{"name": "Святоносский маяк", "latitude": 68.13611, "longitude": 39.76944},
{"name": "Маяк-мемориал в Мурманске", "latitude": 68.970663, "longitude": 33.074918},
{"name": "Музей ВВС Северного флота", "latitude": 69.065369, "longitude": 33.294752},
{"name": "Музейно-выставочный центр «Апатит»", "latitude": 67.61574353, "longitude": 33.66614054},
{"name": "Никольская деревянная церковь в Ковде", "latitude": 68.994722, "longitude": 33.072222},
{"name": "Заброшенный ж/д вокзал Кировска", "latitude": 67.619694, "longitude": 33.669787},
{"name": "Национальный музей Республики Карелия", "latitude": 61.786944, "longitude": 34.363889},
{"name": "Музей изобразительных искусств Республики Карелия", "latitude": 61.787778, "longitude": 34.382222},
{"name": "Музей-заповедник «Кижи»", "latitude": 62.084948, "longitude": 35.212189},
{"name": "Валаамский монастырь", "latitude": 61.388859, "longitude": 30.944827},
{"name": "Городище Паасо", "latitude": 61.731904, "longitude": 30.699716},
{"name": "Кирха в Лумиваара", "latitude": 61.433399, "longitude": 30.140094},
{"name": "Военный комплекс «Гора Филина»", "latitude": 61.548857, "longitude": 30.199141},
{"name": "Шелтозерский вепсский этнографический музей", "latitude": 61.3687, "longitude": 35.358},
{"name": "Государственный Национальный театр Республики Карелия", "latitude": 61.787483215, "longitude": 34.379283905},
{"name": "Муромский монастырь", "latitude": 61.483, "longitude": 36.25},
{"name": "Морской музей «Полярный Одиссей»", "latitude": 61.779906, "longitude": 34.415936},
{"name": "Богоявленская церковь в селе Челмужи", "latitude": 62.578435, "longitude": 35.576927},
{"name": "Культурно-выставочный центр имени Гоголева К.А.", "latitude": 61.685649, "longitude": 30.666233},
{"name": "Успенская церковь в Кондопоге", "latitude": 62.175601, "longitude": 34.286241},
{"name": "Фондовая площадка списанных поездов «Пионерский парк»", "latitude": 59.953224, "longitude": 29.399258},
{"name": "Башня инженера Инка", "latitude": 59.661065, "longitude": 30.242052},
{"name": "Усадьба купца Елисеева", "latitude": 59.35082, "longitude": 30.128605},
{"name": "Крепость Орешек", "latitude": 59.95368, "longitude": 31.03878},
{"name": "Маяк Толбухин", "latitude": 60.0423889, "longitude": 29.5420389},
{"name": "Останки церкви Святой Троицы", "latitude": 59.443242, "longitude": 29.754066},
{"name": "Девонская церковь", "latitude": 53.827725, "longitude": 30.388581},
{"name": "Волковицкая башня", "latitude": 59.644676, "longitude": 29.835482},
{"name": "Музей-диорама «Прорыв блокады Ленинграда»", "latitude": 59.908545, "longitude": 30.994313},
{"name": "Красногвардейский Укрепрайон", "latitude": 59.635994, "longitude": 30.033755},
{"name": "Форт Красная Горка", "latitude": 59.973362, "longitude": 29.327877},
{"name": "Мемориал «Разорванное кольцо»", "latitude": 60.081502, "longitude": 31.067323},
{"name": "Музей-усадьба Репина «Пенаты»", "latitude": 60.155808, "longitude": 29.896564},
{"name": "Крепость Корела", "latitude": 61.029793, "longitude": 30.122838},
{"name": "Парковый комплекс «Усадьба Богословка»", "latitude": 59.8267166, "longitude": 30.5689045},
{"name": "Ропшинский дворец", "latitude": 59.7236111, "longitude": 29.8605611},
{"name": "Музей-усадьба Ганнибалов", "latitude": 59.60353, "longitude": 29.66478},
{"name": "Музей «Дом станционного смотрителя»", "latitude": 59.347889, "longitude": 29.958528},
{"name": "Домик Няни Пушкина", "latitude": 59.4280556, "longitude": 30.1149999},
{"name": "Родовая усадьба Римских-Корсаковых – усадьба Марьино", "latitude": 59.41806, "longitude": 30.90278},
{"name": "Музей-усадьба «Рождествено»", "latitude": 59.3251, "longitude": 29.9359},
{"name": "Музей-усадьба Приютино", "latitude": 60.03068924, "longitude": 30.655017853},
{"name": "Музей-дача А. С. Пушкина", "latitude": 59.724167095570365, "longitude": 30.400052998613187},
{"name": "Колоннада Аполлона", "latitude": 59.6861959, "longitude": 30.4432397},
{"name": "Кирха Святой Марии Магдалины", "latitude": 60.36444, "longitude": 28.60583},
{"name": "Маяк-усадьба", "latitude": 54.8824, "longitude": 26.8616},
{"name": "Исаакиевский собор", "latitude": 59.933694, "longitude": 30.3061425},
{"name": "Эрмитаж", "latitude": 59.939844, "longitude": 30.314557},
{"name": "Медный всадник", "latitude": 59.9363783, "longitude": 30.3022304},
{"name": "Кунсткамера", "latitude": 59.9414967, "longitude": 30.3045327},
{"name": "Собор Спаса-на-Крови", "latitude": 59.940037, "longitude": 30.32893},
{"name": "Русский музей", "latitude": 59.9385918, "longitude": 30.3322212},
{"name": "Крейсер «Аврора»", "latitude": 59.9554045, "longitude": 30.337833},
{"name": "Адмиралтейство", "latitude": 59.9374583, "longitude": 30.30855},
{"name": "Михайловский замок", "latitude": 59.9399937, "longitude": 30.3380463},
{"name": "Магазин купцов Елисеевых", "latitude": 59.934263, "longitude": 30.337982},
{"name": "Дом Зингера", "latitude": 59.935667, "longitude": 30.325917},
{"name": "Александро-Невская лавра", "latitude": 59.922301, "longitude": 30.387454},
{"name": "Морской Никольский собор в Кронштадте", "latitude": 59.991672, "longitude": 29.777801},
{"name": "Музей современного искусства Эрарта", "latitude": 59.932029, "longitude": 30.251525},
{"name": "Аптека Пеля и Башня грифонов", "latitude": 59.93833, "longitude": 30.28384},
{"name": "Петербург в миниатюре", "latitude": 59.9386, "longitude": 30.3141},
{"name": "Музей теней", "latitude": 59.9403952, "longitude": 30.3238216},
{"name": "Мемориальный музей Достоевского", "latitude": 59.9270826, "longitude": 30.3505176},
{"name": "Гранд макет «Россия»", "latitude": 59.887411, "longitude": 30.329989},
{"name": "Музей Фаберже", "latitude": 59.93444, "longitude": 30.34306},
{"name": "Музей обороны и блокады Ленинграда", "latitude": 59.944444, "longitude": 30.340833},
{"name": "Музей самоизоляции", "latitude": 55.797661, "longitude": 49.106815},
{"name": "Главный штаб", "latitude": 59.939043, "longitude": 30.318658},
{"name": "Смольный", "latitude": 59.9461973, "longitude": 30.3968174},
{"name": "Смольный собор", "latitude": 59.948907, "longitude": 30.395608},
{"name": "Памятник Виктору Цою", "latitude": 59.842056, "longitude": 30.246088},
{"name": "Котельная «Камчатка»", "latitude": 59.952061, "longitude": 30.300829},
{"name": "Кронштадтский морской собор", "latitude": 59.998584507713, "longitude": 29.779331199833965},
{"name": "Домик Петра I", "latitude": 59.953333, "longitude": 30.330833},
{"name": "Здание двенадцати коллегий", "latitude": 59.94001, "longitude": 30.30119},
{"name": "Особняк Кшесинской", "latitude": 59.9546056, "longitude": 30.324583},
{"name": "Витебский вокзал", "latitude": 59.9199219, "longitude": 30.3288956},
{"name": "Юсуповский дворец", "latitude": 59.927984, "longitude": 30.30019},
{"name": "Памятник Екатерине II", "latitude": 59.9333, "longitude": 30.3369},
{"name": "Музей Пушкина на Мойке", "latitude": 59.941209, "longitude": 30.32124},
{"name": "Консерватория имени Н.А. Римского-Корсакова", "latitude": 59.92583, "longitude": 30.29806},
{"name": "Академия художеств", "latitude": 59.937494, "longitude": 30.290205},
{"name": "Малый Эрмитаж", "latitude": 59.941247, "longitude": 30.31571},
{"name": "Новый Эрмитаж", "latitude": 59.939844, "longitude": 30.314557},
{"name": "Инженерный замок", "latitude": 59.940371, "longitude": 30.337798},
{"name": "Воронцовский дворец", "latitude": 59.93139, "longitude": 30.33194},
{"name": "Строгановский дворец", "latitude": 59.9357046, "longitude": 30.320118},
{"name": "Ледовый дворец", "latitude": 59.92167, "longitude": 30.46639},
{"name": "Большой драматический театр", "latitude": 59.927612, "longitude": 30.330654},
{"name": "Ростральные колонны", "latitude": 59.94389, "longitude": 30.30583},
{"name": "Военно-исторический музей артиллерии, инженерных войск и войск связи", "latitude": 59.9539, "longitude": 30.3138},
{"name": "Михайловский театр", "latitude": 59.9378647, "longitude": 30.3291268},
{"name": "Эрмитажный театр", "latitude": 59.942226, "longitude": 30.318129},
{"name": "Здания Сената и Синода", "latitude": 59.93528, "longitude": 30.30139},
{"name": "Большой зал Филармонии", "latitude": 59.9354121, "longitude": 30.3281706},
{"name": "Московский вокзал", "latitude": 59.9281401, "longitude": 30.3626595},
{"name": "Мраморный дворец", "latitude": 59.9451172, "longitude": 30.3266928},
{"name": "Дворец Бобринских", "latitude": 59.93021761, "longitude": 30.28525753},
{"name": "Чесменская церковь", "latitude": 59.85697, "longitude": 30.33093},
{"name": "Московские триумфальные ворота", "latitude": 59.8914, "longitude": 30.3194},
{"name": "Новгородский детинец", "latitude": 58.521667, "longitude": 31.276111},
{"name": "Музей деревянного зодчества Витославлицы", "latitude": 58.49153, "longitude": 31.272311},
{"name": "Валдайский Иверский монастырь", "latitude": 57.989356, "longitude": 33.301665},
{"name": "Дом-музей Федора Достоевского", "latitude": 59.9270826, "longitude": 30.3505176},
{"name": "Музейный комплекс «Славянская деревня Х века»", "latitude": 58.812776, "longitude": 33.371713},
{"name": "Музей-усадьба Александра Суворова", "latitude": 58.652958, "longitude": 34.066157},
{"name": "Музей колоколов в Валдае", "latitude": 57.967649, "longitude": 33.250036},
{"name": "Урочище Перынь", "latitude": 58.473154, "longitude": 31.273232},
{"name": "Дом-музей Некрасова «Чудовская Лука»", "latitude": 59.117583, "longitude": 31.662985},
{"name": "Свято-Юрьев монастырь", "latitude": 58.486606, "longitude": 31.284708},
{"name": "Храм Спаса Преображения в Великом Новгороде", "latitude": 58.517455, "longitude": 31.295528},
{"name": "Антониев монастырь", "latitude": 58.539847, "longitude": 31.286794},
{"name": "Знаменский собор в Великом Новгороде", "latitude": 58.51714, "longitude": 31.294483},
{"name": "Варлаамо-Хутынский монастырь", "latitude": 58.5876, "longitude": 31.394},
{"name": "Николо-Вяжищский монастырь", "latitude": 58.622801, "longitude": 31.168758},
{"name": "Спасо-Преображенский монастырь в Старой Руссе", "latitude": 57.99411, "longitude": 31.3603},
{"name": "Воскресенский собор в Старой Руссе", "latitude": 57.987951, "longitude": 31.352792},
{"name": "Дом-музей Глеба Успенского в деревне Сябреницы", "latitude": 59.138172, "longitude": 31.625099},
{"name": "Музей Северо-Западного фронта в Старой Руссе", "latitude": 57.992706, "longitude": 31.363169},
{"name": "Музей уездного города в Валдае", "latitude": 57.977625, "longitude": 33.256659},
{"name": "Псковский Кремль", "latitude": 57.8220008, "longitude": 28.3289796},
{"name": "Псково-Печерский монастырь", "latitude": 57.8100631, "longitude": 27.6149939},
{"name": "Музей-усадьба «Михайловское»", "latitude": 56.256702, "longitude": 31.349977},
{"name": "Музей-усадьба «Петровское»", "latitude": 57.079887, "longitude": 28.948374},
{"name": "Музей-усадьба «Тригорское»", "latitude": 57.163057, "longitude": 28.839111},
{"name": "Палаты Меньшиковых в Пскове", "latitude": 57.812261, "longitude": 28.335448},
{"name": "Великолукская крепость", "latitude": 56.34269, "longitude": 30.507225},
{"name": "Музей-заповедник Н. А. Римского-Корсакова", "latitude": 58.39944, "longitude": 29.60222},
{"name": "Музей-заповедник М. П. Мусоргского", "latitude": 56.27222, "longitude": 31.32528},
{"name": "Музей-усадьба С. Ковалевской", "latitude": 56.133437, "longitude": 30.399968},
{"name": "Мирожский монастырь", "latitude": 57.805167, "longitude": 28.329288},
{"name": "Церковь Василия Великого на Горке", "latitude": 57.815225, "longitude": 28.335785},
{"name": "Гдовский кремль", "latitude": 56.567222, "longitude": 28.775},
{"name": "Спасо-Казанский Симанский монастырь", "latitude": 57.338567, "longitude": 28.3643},
{"name": "Музей-усадьба народа Сето", "latitude": 57.7513, "longitude": 27.6346},
{"name": "Ольгинская часовня", "latitude": 57.820029, "longitude": 28.324886},
{"name": "Замок Шаакен", "latitude": 54.90583, "longitude": 20.66889},
{"name": "Музей «Вальдавский замок»", "latitude": 54.700544, "longitude": 20.742786},
{"name": "Маяк Лабагинена", "latitude": 54.901414, "longitude": 21.058136},
{"name": "Замок Георгенбург", "latitude": 54.660477, "longitude": 21.80667},
{"name": "Замок Прейсиш-Эйлау", "latitude": 54.386605, "longitude": 20.632886},
{"name": "Замок Гердауэн", "latitude": 54.364502, "longitude": 21.309507},
{"name": "Музей «Средневековое городище Ушкуй»", "latitude": 54.47168, "longitude": 21.066061},
{"name": "Музей «Поселение викингов Кауп»", "latitude": 54.878422, "longitude": 20.278862},
{"name": "Музей филинов и сов «ФилоСовия»", "latitude": 54.95609, "longitude": 20.477775},
{"name": "Музей «Старая немецкая школа Вальдвинкель»", "latitude": 54.867357, "longitude": 21.248785},
{"name": "Музей пыток в Орловке", "latitude": 54.793098, "longitude": 20.533545},
{"name": "Музей кошек «Мурариум» в Зеленоградске", "latitude": 54.959795, "longitude": 20.482545},
{"name": "Кирха Эйдткунена", "latitude": 54.639885, "longitude": 22.73345},
{"name": "Кирха святой Барбары", "latitude": 54.891268, "longitude": 20.564462},
{"name": "Кирха Святого Якоба", "latitude": 54.6182, "longitude": 21.231529},
{"name": "Кирха Куменена", "latitude": 54.820339, "longitude": 20.212478},
{"name": "Мавзолей В.И. Ленина", "latitude": 55.753605, "longitude": 37.619773},
{"name": "Государственная Третьяковская галерея", "latitude": 55.741556, "longitude": 37.620028},
{"name": "Государственная Третьяковская галерея, галерея Новая Третьяковка", "latitude": 55.734719, "longitude": 37.605976},
{"name": "Оружейная палата", "latitude": 55.749455, "longitude": 37.613473},
{"name": "Музей космонавтики", "latitude": 55.82271, "longitude": 37.639743},
{"name": "Выставка Алмазный фонд Гохрана России", "latitude": 55.749593, "longitude": 37.613807},
{"name": "Государственный музей А. С. Пушкина", "latitude": 55.743575, "longitude": 37.597736},
{"name": "Государственный Дарвиновский музей", "latitude": 55.690797, "longitude": 37.561547},
{"name": "Музей-Диорама Царь-Макет", "latitude": 55.817173, "longitude": 37.655321},
{"name": "Музей \"Московский транспорт\"", "latitude": 55.742534, "longitude": 37.67812},
{"name": "Исторический парк Россия – моя история", "latitude": 55.834244, "longitude": 37.626269},
{"name": "Музей Холодной войны в Бункер-42 на Таганке", "latitude": 55.741754, "longitude": 37.649256},
{"name": "Государственный музей Владимира Высоцкого", "latitude": 55.744448, "longitude": 37.65179},
{"name": "Музей Михаила Афанасьевича Булгакова", "latitude": 55.766996, "longitude": 37.59388},
{"name": "Музей автомобильных историй В. Попова", "latitude": 55.83201, "longitude": 37.518757},
{"name": "Ломаковский музей старинных автомобилей и мотоциклов", "latitude": 55.67473, "longitude": 37.771688},
{"name": "Московский музей современного искусства", "latitude": 55.767011, "longitude": 37.614227},
{"name": "Государственный музей истории ГУЛАГа", "latitude": 55.777088, "longitude": 37.613561},
{"name": "Музей Москвы", "latitude": 55.73639, "longitude": 37.593596},
{"name": "научно-исследовательский музей архитектуры имени А.В. Щусева", "latitude": 55.752481, "longitude": 37.607368},
{"name": "Государственный музей Востока", "latitude": 55.756432, "longitude": 37.599815},
{"name": "Музей Победы", "latitude": 55.730588, "longitude": 37.504063},
{"name": "Музей Вооружённых Сил ", "latitude": 55.784916, "longitude": 37.617124},
{"name": "Государственный музей обороны Москвы", "latitude": 55.676652, "longitude": 37.467568},
{"name": "Музей-панорама Бородинская битва", "latitude": 55.738752, "longitude": 37.523187},
{"name": "Музей Отечественной войны 1812 года", "latitude": 55.756234, "longitude": 37.618696},
{"name": "Центр современного искусства Винзавод", "latitude": 55.755556, "longitude": 37.664613},
{"name": "Павильон Макет Москвы", "latitude": 55.83439, "longitude": 37.630086},
{"name": "Центр творческих индустрий Фабрика", "latitude": 55.779214, "longitude": 37.689679},
{"name": "Культурный центр ЗИЛ", "latitude": 55.714571, "longitude": 37.657863},
{"name": "ГЭС-2", "latitude": 55.742751, "longitude": 37.612732},
{"name": "Музей Собаки", "latitude": 55.716696, "longitude": 37.595652},
{"name": "Еврейский музей и центр толерантности", "latitude": 55.789271, "longitude": 37.607867},
{"name": "Музей коломенской пастилы", "latitude": 55.104594, "longitude": 38.76986},
{"name": "Музей \"Калачная\"", "latitude": 55.105801, "longitude": 38.763801},
{"name": "Музейная Фабрика Пастилы", "latitude": 55.102318, "longitude": 38.770315},
{"name": "Музей-резиденция Арткоммуналка. Ерофеев и другие", "latitude": 55.100945, "longitude": 38.756741},
{"name": "Музей Любимой Игрушки", "latitude": 55.100945, "longitude": 38.756741},
{"name": "Душистыя радости", "latitude": 55.105534, "longitude": 38.763729},
{"name": "Тайны Коломенской медовуши", "latitude": 55.102541, "longitude": 38.752147},
{"name": "Музей Сергиевская кухмистерская и ландринная лавка", "latitude": 56.312235, "longitude": 38.138408},
{"name": "Музей советского детства", "latitude": 56.312261, "longitude": 38.138397},
{"name": "Музей современного искусства Кибер Зона", "latitude": 56.339176, "longitude": 38.126295},
{"name": "Музейный комплекс \"Конный двор\"", "latitude": 56.313635, "longitude": 38.133183},
{"name": "Музей Арт-Макет", "latitude": 56.312128, "longitude": 38.137571},
{"name": "Музей впечатлений", "latitude": 56.332259, "longitude": 38.132504},
{"name": "Музей Назад в СССР", "latitude": 55.7306, "longitude": 36.85244},
{"name": "Музей истории русского десерта", "latitude": 55.731011, "longitude": 36.848045},
{"name": "Музей Лего LEts Go", "latitude": 55.733327, "longitude": 36.824724},
{"name": "Музей Аэрофлота", "latitude": 55.982753, "longitude": 37.407782},
{"name": "Химкинская картинная галерея им. С.Н. Горшина", "latitude": 55.889104, "longitude": 37.445551},
{"name": "Дом-музей Николая Седнина", "latitude": 55.970945, "longitude": 37.315202},
{"name": "Мытищинский историко-художественный музей", "latitude": 55.91131, "longitude": 37.735419},
{"name": "МУК Музейно-выставочный комплекс", "latitude": 55.676853, "longitude": 37.89433},
{"name": "Дом-Музей Чайковского П.И.", "latitude": 56.328918, "longitude": 36.74743},
{"name": "Клинское Подворье", "latitude": 56.337918, "longitude": 36.721691},
{"name": "Музей Аркадия Гайдара", "latitude": 56.336707, "longitude": 36.724668},
{"name": "музей Героев-панфиловцев", "latitude": 55.985072, "longitude": 36.017115},
{"name": "Ярополецкий народный краеведческий музей", "latitude": 56.130489, "longitude": 35.823193},
{"name": "Интерактивный музей имени Героев-панфиловцев", "latitude": 55.981099, "longitude": 36.03506},
{"name": "Музей печати", "latitude": 54.917825, "longitude": 37.424173},
{"name": "Дом-музей П. А. Кропоткина", "latitude": 56.341182, "longitude": 37.521146},
{"name": "Музей Дмитровской лягушки", "latitude": 56.344531, "longitude": 37.522309},
{"name": "Дом-музей священномученика Серафима Звездинского, епископа Дмитровского", "latitude": 56.33835, "longitude": 37.528386},
{"name": "Орехово-Зуевский городской историко-краеведческий музей", "latitude": 55.8136, "longitude": 38.999664},
{"name": "Дом-музей скульптора А.С. Голубкиной", "latitude": 54.759416, "longitude": 38.881574},
{"name": "Можайский историко-краеведческий музей", "latitude": 55.509646, "longitude": 536.014863},
{"name": "Дом-музей С.В. Герасимова", "latitude": 55.521269, "longitude": 36.010818},
{"name": "Музей боевой славы", "latitude": 55.509672, "longitude": 36.015323},
{"name": "Музей техники Вадима Задорожного", "latitude": 55.795833, "longitude": 37.296648},
{"name": "Музейно-выставочный комплекс Новый Иерусалим", "latitude": 55.926575, "longitude": 36.84521},
{"name": "Центральный музей ВВС", "latitude": 55.832871, "longitude": 38.182575},
{"name": "Музей истории Воздушно-десантных войск", "latitude": 54.633091, "longitude": 39.736315},
{"name": "Рязанский государственный областной художественный музей имени И. П. Пожалостина", "latitude": 54.627273, "longitude": 39.751188},
{"name": "Мемориальный музей-усадьба академика И.П. Павлова", "latitude": 54.631759, "longitude": 39.727231},
{"name": "Рязанский музей дальней авиации", "latitude": 54.653798, "longitude": 39.588518},
{"name": "Музей истории рязанского леденца", "latitude": 54.633637, "longitude": 39.743662},
{"name": "Историко-мемориальный зал боевой техники и вооружения ВДВ", "latitude": 54.613783, "longitude": 39.667641},
{"name": "Интерактивный музей сказок Забава", "latitude": 54.627272, "longitude": 39.744274},
{"name": "Аромат времени", "latitude": 54.629799, "longitude": 39.736157},
{"name": "Усадьба Асеевых", "latitude": 52.707157, "longitude": 41.477798},
{"name": "Тамбовский областной краеведческий музей", "latitude": 52.725193, "longitude": 41.453714},
{"name": "Дом-музей Г.В. Чичерина", "latitude": 52.715248, "longitude": 41.460724},
{"name": "Музей истории шоколада Такф", "latitude": 52.723877, "longitude": 41.441458},
{"name": "Музейно-выставочный центр Тамбовской области", "latitude": 52.722934, "longitude": 41.451026},
{"name": "Тамбовская областная картинная галерея", "latitude": 52.724682, "longitude": 41.456062},
{"name": "Мичуринский краеведческий музей", "latitude": 52.894011, "longitude": 40.507838},
{"name": "Дом-музей И.В. Мичурина", "latitude": 52.898384, "longitude": 40.525992},
{"name": "Воронежский областной художественный музей имени И.Н. Крамского", "latitude": 51.673911, "longitude": 39.209867},
{"name": "Петровские корабли", "latitude": 51.661738, "longitude": 39.188083},
{"name": "Воронежский областной краеведческий музей", "latitude": 51.666628, "longitude": 39.19356},
{"name": "Музей природы Воронежского заповедника", "latitude": 51.875599, "longitude": 39.652909},
{"name": "Музей И. А. Бунина", "latitude": 51.679787, "longitude": 39.215283},
{"name": "Музей-диорама «Курская битва»", "latitude": 50.591283, "longitude": 36.5878},
{"name": "Белгородский художественный музей", "latitude": 50.592766, "longitude": 36.586711},
{"name": "Белгородский государственный историко-краеведческий музей", "latitude": 50.592369, "longitude": 36.588039},
{"name": "Белгородский государственный музей народной культуры", "latitude": 50.594849, "longitude": 36.589697},
{"name": "Белгородский государственный литературный музей", "latitude": 50.597632, "longitude": 36.598884},
{"name": "Центр народных промыслов", "latitude": 51.281342, "longitude": 37.793572},
{"name": "Музей «Прохоровское поле»", "latitude": 51.042701, "longitude": 36.749264},
{"name": "Курский областной краеведческий музей", "latitude": 51.727587, "longitude": 36.191589},
{"name": "Литературный музей", "latitude": 51.742082, "longitude": 36.188181},
{"name": "Курск – город воинской славы", "latitude": 51.756923, "longitude": 36.187768},
{"name": "Историко-мемориальный музей КП Центрального фронта", "latitude": 51.971378, "longitude": 36.310867},
{"name": "Железногорский краеведческий музей", "latitude": 52.343717, "longitude": 35.348376},
{"name": "Орловский краеведческий музей", "latitude": 52.964147, "longitude": 36.068431},
{"name": "Орловский военно-исторический музей", "latitude": 52.953142, "longitude": 36.063875},
{"name": "Музей коллекционных кукол", "latitude": 52.967462, "longitude": 36.12842},
{"name": "музей И.С. Тургенева", "latitude": 52.967111, "longitude": 36.061254},
{"name": "Дом-музей В. А. Русанова", "latitude": 52.96329, "longitude": 36.087411},
{"name": "Музей И. А. Бунина", "latitude": 52.965983, "longitude": 36.060983},
{"name": "Дом-музей Леонида Андреева", "latitude": 52.961264, "longitude": 36.048971},
{"name": "Орловский музей изобразительных искусств", "latitude": 52.972268, "longitude": 36.05822},
{"name": "Липецкий областной краеведческий музей", "latitude": 52.613984, "longitude": 39.608564},
{"name": "Автолегенда", "latitude": 52.583095, "longitude": 39.566307},
{"name": "Музей НЛМК", "latitude": 52.573166, "longitude": 39.621266},
{"name": "Липецкий историко-культурный музей", "latitude": 52.617903, "longitude": 39.582812},
{"name": "Художественный музей имени В.С. Сорокина - Дом Мастера", "latitude": 52.609651, "longitude": 39.60186},
{"name": "Музей купечества и сословий", "latitude": 52.627139, "longitude": 38.498348},
{"name": "Литературно-мемориальный музей И. А. Бунина", "latitude": 52.618694, "longitude": 38.493767},
{"name": "Музей Елецкого кружева", "latitude": 52.619734, "longitude": 38.501905},
{"name": "Тульский государственный музей оружия", "latitude": 54.204272, "longitude": 37.616499},
{"name": "Музей Тульский пряник", "latitude": 54.211566, "longitude": 37.622105},
{"name": "Музей гармони Деда Филимона", "latitude": 54.192505, "longitude": 37.621713},
{"name": "Музей станка", "latitude": 54.191087, "longitude": 37.612136},
{"name": "Тульский Историко-архитектурный музей", "latitude": 54.190004, "longitude": 37.614505},
{"name": "Музей «Тульские древности»", "latitude": 54.186354, "longitude": 37.610586},
{"name": "Исторический музей", "latitude": 54.197853, "longitude": 37.617136},
{"name": "Художественно-краеведческий музей", "latitude": 54.5132, "longitude": 37.093721},
{"name": "Музейно-мемориальный комплекс героям Куликовской битвы", "latitude": 53.670591, "longitude": 38.642492},
{"name": "Тульские самовары", "latitude": 54.194319, "longitude": 37.618821},
{"name": "Музей-лаборатория", "latitude": 54.197638, "longitude": 37.617157},
{"name": "Музей Мото-Авто-АРТ", "latitude": 54.154436, "longitude": 37.482534},
{"name": "Музей-заповедник Куликово поле", "latitude": 53.623942, "longitude": 38.672613},
{"name": "Музей купеческого быта", "latitude": 53.827551, "longitude": 38.554383},
{"name": "Музей Филимоновская игрушка", "latitude": 53.936195, "longitude": 36.687622},
{"name": "Усадьба Дворяниново", "latitude": 54.704284, "longitude": 37.55713},
{"name": "Военно-исторический музей", "latitude": 54.195905, "longitude": 37.619724},
{"name": "Музей истории космонавтики", "latitude": 54.51697, "longitude": 36.230691},
{"name": "Мемориальный дом-музей К.Э. Циолковского", "latitude": 54.511175, "longitude": 36.230194},
{"name": "Музейно-краеведческий комплекс Усадьба Золотарёвых", "latitude": 54.510688, "longitude": 36.245533},
{"name": "Дом-музей А. Л. Чижевского", "latitude": 54.518204, "longitude": 36.2627},
{"name": "Калужский музей изобразительных искусств", "latitude": 54.508683, "longitude": 36.256678},
{"name": "Музей стекла Алексея Зеля", "latitude": 54.507302, "longitude": 36.254671},
{"name": "Музейно-краеведческий центр Палаты Коробовых", "latitude": 54.510564, "longitude": 36.242695},
{"name": "Военно-исторический центр Маршал Победы - Георгий Константинович Жуков", "latitude": 54.516493, "longitude": 36.283567},
{"name": "Обнинский музей", "latitude": 55.110739, "longitude": 36.589871},
{"name": "Художественный музей мусора МУ МУ", "latitude": 55.123313, "longitude": 36.825582},
{"name": "Планетарий", "latitude": 54.516892, "longitude": 36.230838},
{"name": "Музей 1812 года", "latitude": 55.012118, "longitude": 36.473574},
{"name": "Музей-диорама Великое Стояние на реке Угре", "latitude": 54.614173, "longitude": 35.999558},
{"name": "Тарусский музей семьи Цветаевых", "latitude": 54.730868, "longitude": 37.175487},
{"name": "Музей Сергея Жарова", "latitude": 54.723248, "longitude": 37.181724},
{"name": "Мастерская Эдуарда Штейнберга", "latitude": 54.715525, "longitude": 37.18772},
{"name": "Бузеон", "latitude": 54.738701, "longitude": 35.995741},
{"name": "Музей Kомпьютеров", "latitude": 55.20855, "longitude": 36.486071},
{"name": "Музейно-выставочный центр", "latitude": 55.203667, "longitude": 36.487626},
{"name": "Брянский музей истории фотографии", "latitude": 53.244344, "longitude": 34.359779},
{"name": "Литературно-Мемориальный Музей Ф.И. Тютчева", "latitude": 53.37308, "longitude": 33.87862},
{"name": "Музей Великой Отечественной войны", "latitude": 54.779374, "longitude": 32.047485},
{"name": "Музей Смоленская крепость, Башня Громовая", "latitude": 54.78007, "longitude": 32.043756},
{"name": "Художественная галерея", "latitude": 54.780461, "longitude": 32.046122},
{"name": "Музей Первого полёта", "latitude": 55.553629, "longitude": 35.004712},
{"name": "Музей козла", "latitude": 56.853323, "longitude": 35.910438},
{"name": "Музей Плюшкина", "latitude": 56.855986, "longitude": 35.917648},
{"name": "Музей тверского быта", "latitude": 56.866496, "longitude": 35.910294},
{"name": "Музей фотографии Искра", "latitude": 56.858277, "longitude": 35.909846},
{"name": "Ретро-техно-музей ИнтернетаНЕТ", "latitude": 56.85441, "longitude": 35.910437},
{"name": "Музей Михаила Круга", "latitude": 56.850166, "longitude": 35.907613},
{"name": "Музей золотного шитья", "latitude": 57.031288, "longitude": 34.988408},
{"name": "Музей стекла завода Красный май", "latitude": 57.588388, "longitude": 34.557879},
{"name": "Вышневолоцкий краеведческий музей имени Г. Г. Монаховой", "latitude": 57.584851, "longitude": 34.560525},
{"name": "Ржевский краеведческий музей", "latitude": 56.260367, "longitude": 34.330319},
{"name": "Кимрский краеведческий музей", "latitude": 56.872847, "longitude": 37.355604},
{"name": "Музыка и время", "latitude": 57.630078, "longitude": 39.895167},
{"name": "Ярославский художественный музей", "latitude": 57.628289, "longitude": 39.897206},
{"name": "Музей истории города Ярославля", "latitude": 57.627059, "longitude": 39.898601},
{"name": "Мультимедийный музей нового взгляда на историю", "latitude": 57.632396, "longitude": 39.893411},
{"name": "Музей боевой славы", "latitude": 57.633218, "longitude": 39.8317},
{"name": "Музей им. В. Ю. Орлова", "latitude": 57.626421, "longitude": 39.899205},
{"name": "Рыбинский музей-заповедник", "latitude": 58.049425, "longitude": 38.856285},
{"name": "Музей Советская эпоха", "latitude": 58.073149, "longitude": 38.815925},
{"name": "Музей Мологского края", "latitude": 58.047322, "longitude": 38.855442},
{"name": "Русская Атлантида", "latitude": 58.04922, "longitude": 38.855643},
{"name": "Музей гидроэнергетики", "latitude": 57.524446, "longitude": 38.303831},
{"name": "Музей тюремного искусства Запретная зона", "latitude": 57.529452, "longitude": 38.32124},
{"name": "Музей Мифы и суеверия русского народа", "latitude": 57.52351, "longitude": 38.307963},
{"name": "Музей истории велосипедов Самокатъ", "latitude": 57.529358, "longitude": 38.321423},
{"name": "Музей кожевенного ремесла", "latitude": 57.529793, "longitude": 38.32162},
{"name": "Музей Царевны-лягушки", "latitude": 57.182759, "longitude": 39.405209},
{"name": "Музей Народного Искусства", "latitude": 57.1819, "longitude": 39.403927},
{"name": "Богатырское подворье Алёши Поповича и мастерская Марьи Искусницы", "latitude": 57.183159, "longitude": 39.402175},
{"name": "Музей Ростовское подворье", "latitude": 57.18638, "longitude": 39.416443},
{"name": "Ростовская пряница", "latitude": 57.181641, "longitude": 39.400977},
{"name": "Музей утюга", "latitude": 56.734618, "longitude": 38.85247},
{"name": "Шоу-макет Золотое кольцо", "latitude": 57.62697, "longitude": 39.89728},
{"name": "Музей мыши", "latitude": 57.783786, "longitude": 38.450742},
{"name": "Музей баклуши и библиотека варенья", "latitude": 57.311617, "longitude": 39.518694},
{"name": "Мышкины палаты", "latitude": 57.785626, "longitude": 38.4538},
{"name": "Музей радио", "latitude": 56.722978, "longitude": 38.824372},
{"name": "Лукова слобода", "latitude": 57.19443, "longitude": 39.402462},
{"name": "Музей сыра", "latitude": 57.762517, "longitude": 40.930541},
{"name": "Музей-усадьба льна и бересты", "latitude": 57.778283, "longitude": 40.912275},
{"name": "Дом городского головы Г.Н. Ботникова", "latitude": 57.76689, "longitude": 40.931561},
{"name": "Романовский музей", "latitude": 57.76963, "longitude": 40.929817},
{"name": "Музей народных промыслов Петровская игрушка", "latitude": 57.769124, "longitude": 40.913451},
{"name": "Лес Чудодей", "latitude": 57.775469, "longitude": 40.903656},
{"name": "Терем Снегурочки", "latitude": 57.755679, "longitude": 40.950939},
{"name": "Музей советского автопрома", "latitude": 56.996854, "longitude": 40.959893},
{"name": "Музей Ивановского ситца", "latitude": 57.004843, "longitude": 40.97389},
{"name": "Музей промышленности и искусства", "latitude": 57.004354, "longitude": 40.974172},
{"name": "Ивановский областной художественный музей", "latitude": 57.008145, "longitude": 40.971791},
{"name": "Мемориальный дом-музей И.И. Левитана", "latitude": 57.459304, "longitude": 41.523661},
{"name": "Музей Старый Владимир", "latitude": 56.125151, "longitude": 40.398685},
{"name": "Дом-музей пряника", "latitude": 56.128181, "longitude": 40.404515},
{"name": "Музей ложки", "latitude": 56.12745, "longitude": 40.403348},
{"name": "Кузница-музей Бородиных", "latitude": 56.126805, "longitude": 40.40261},
{"name": "Музей-сказка Бабуся-Ягуся", "latitude": 56.127675, "longitude": 40.402115},
{"name": "Музей «Старая аптека»", "latitude": 56.127253, "longitude": 40.402362},
{"name": "Музей хрусталя имени Мальцовых", "latitude": 55.61982, "longitude": 40.658117},
{"name": "Кибер музей. Музей воспоминаний", "latitude": 55.580339, "longitude": 42.054271},
{"name": "Хлебная горница", "latitude": 55.569142, "longitude": 42.021963},
{"name": "Нескучный Mузей Изба Трактир", "latitude": 56.417028, "longitude": 40.448934},
{"name": "Музей восковых фигур", "latitude": 56.418694, "longitude": 40.448229},
{"name": "Музей Огни Владимира", "latitude": 56.12762, "longitude": 40.399929},
{"name": "Исторический парк Россия - Моя история", "latitude": 45.02169, "longitude": 41.895405},
{"name": "Ставропольский государственный историко-культурный и природно-ландшафтный музей-заповедник имени Г. Н. Прозрителева и Г. К. Праве", "latitude": 45.044704, "longitude": 41.968207},
{"name": "Пятигорский краеведческий музей", "latitude": 44.036116, "longitude": 43.079856},
{"name": "Музей насекомых Экзотариум", "latitude": 44.037612, "longitude": 43.083546},
{"name": "Домик М. Ю. Лермонтова", "latitude": 44.039582, "longitude": 43.078808},
{"name": "Россия – моя история", "latitude": 44.03637, "longitude": 43.013081},
{"name": "Планетарий", "latitude": 44.033742, "longitude": 43.06516},
{"name": "Зоопарк Берендеево", "latitude": 44.033577, "longitude": 43.059645},
{"name": "Лермонтовская галерея", "latitude": 44.036681, "longitude": 43.081991},
{"name": "музей-усадьба художника Николая Александровича Ярошенко", "latitude": 43.892832, "longitude": 42.718557},
{"name": "Литературно-музыкальный музей Дача Шаляпина", "latitude": 43.900877, "longitude": 42.722964},
{"name": "Кисловодский историко-краеведческий музей Крепость", "latitude": 43.89476, "longitude": 42.716415},
{"name": "Музей истории и природы национального парка Кисловодский", "latitude": 43.900446, "longitude": 42.717017},
{"name": "Информационно-культурный центр Музей А. И. Солженицына", "latitude": 43.901304, "longitude": 42.72407},
{"name": "Театр-музей «Благодать»", "latitude": 43.900442, "longitude": 42.726733},
{"name": "Пушкинская галерея", "latitude": 44.135037, "longitude": 43.031651},
{"name": "Смирновский источник", "latitude": 44.137667, "longitude": 43.035159},
{"name": "Специальная астрофизическая обсерватория", "latitude": 43.677138, "longitude": 41.457881},
{"name": "Планетарий САО", "latitude": 43.675582, "longitude": 41.457283},
{"name": "Национальный музей КБР", "latitude": 43.486557, "longitude": 43.608177},
{"name": "Минеральная питьевая галерея «Источник Нальчик»", "latitude": 43.456847, "longitude": 43.584925},
{"name": "Музей Обороны Приэльбрусья", "latitude": 43.290087, "longitude": 42.460457},
{"name": "Национальный музей Республики Северная Осетия-Алания", "latitude": 43.027313, "longitude": 44.680652},
{"name": "Художественный музей имени М. С. Туганова", "latitude": 43.02898, "longitude": 44.68115},
{"name": "Музей истории Владикавказа", "latitude": 43.034926, "longitude": 44.682355},
{"name": "Музей Чеченской Республики", "latitude": 43.324217, "longitude": 45.6824},
{"name": "Национальный музей Республики Дагестан", "latitude": 42.982774, "longitude": 47.510731},
{"name": "Россия – моя история", "latitude": 42.968691, "longitude": 47.495393},
{"name": "Дагестанский музей изобразительных искусств имени П.С. Гамзатовой", "latitude": 42.982373, "longitude": 47.510807},
{"name": "Музей-заповедник – этнографический комплекс Дагестанский аул", "latitude": 42.982669, "longitude": 47.510925},
{"name": "Музей ковры и декоративно-прикладное искусство Дагестана", "latitude": 42.057105, "longitude": 48.287133},
{"name": "Дом Петра І", "latitude": 42.062012, "longitude": 48.304128},
{"name": "Музей боевой славы", "latitude": 42.069881, "longitude": 48.296077},
{"name": "Этно Дом Кубачи", "latitude": 42.061562, "longitude": 48.304272},
{"name": "Хунзахский музей", "latitude": 42.538085, "longitude": 46.702862},
{"name": "Национальный музей Республики Татарстан", "latitude": 55.795712, "longitude": 49.109801},
{"name": "Музей Социалистического Быта", "latitude": 55.787088, "longitude": 49.119781},
{"name": "Музей Чак-Чака", "latitude": 55.782046, "longitude": 49.112496},
{"name": "Музей Константина Васильева", "latitude": 55.790069, "longitude": 49.116646},
{"name": "Музей иллюзий", "latitude": 55.791638, "longitude": 49.113556},
{"name": "Дом-Музей Василия Аксенова", "latitude": 55.795444, "longitude": 49.135196},
{"name": "Литературно-мемориальный музей А.М. Горького", "latitude": 55.793505, "longitude": 49.129653},
{"name": "Музей чая", "latitude": 55.781008, "longitude": 49.115685},
{"name": "Музей Е. А. Боратынского, филиал Национального музея Республики Татарстан", "latitude": 55.79387, "longitude": 49.135421},
{"name": "Музей оружия Дух Воина", "latitude": 55.798768, "longitude": 49.106171},
{"name": "Музей-квартира Мусы Джалиля", "latitude": 55.794072, "longitude": 49.132214},
{"name": "Музей \"Городская панорама\"", "latitude": 55.796273, "longitude": 49.114247},
{"name": "Дом-музей В.И. Ленина", "latitude": 55.786915, "longitude": 49.138807},
{"name": "Государственный музей изобразительных искусств Республики Татарстан", "latitude": 55.794953, "longitude": 49.134909},
{"name": "Самарский областной историко-краеведческий музей им. П.В. Алабина", "latitude": 53.192765, "longitude": 50.10906},
{"name": "Музей модерна", "latitude": 53.194238, "longitude": 50.096214},
{"name": "Музей-усадьба А. Толстого. Самарский литературно-мемориальный музей им. М. Горького. Музей Буратино", "latitude": 53.193574, "longitude": 50.095729},
{"name": "Дом-музей В.И.Ленина в г. Самаре", "latitude": 53.193116, "longitude": 50.11082},
{"name": "Дом-музей М.В. Фрунзе", "latitude": 53.191546, "longitude": 50.093752},
{"name": "Музей Эльдара Рязанова", "latitude": 53.192695, "longitude": 50.094507},
{"name": "Поволжский музей железнодорожной техники", "latitude": 53.222897, "longitude": 50.293232},
{"name": "Музей авиации и космонавтики имени С.П. Королёва Московское ш.", "latitude": 53.195878, "longitude": 50.100202},
{"name": "Самарский военно-исторический музей", "latitude": 53.196682, "longitude": 50.095261},
{"name": "Зоологический музей им. В.Н. Темнохолмова СГСПУ Antonova-Ovseyenko", "latitude": 53.195658629268216, "longitude": 50.09953186911404},
{"name": "Самарский областной художественный музей", "latitude": 53.189431, "longitude": 50.089845},
{"name": "Музей лягушки", "latitude": 53.179799, "longitude": 50.075166},
{"name": "Военно-исторический музей ПУРВО Рабочая", "latitude": 53.195878, "longitude": 50.100202},
{"name": "Музей истории города Самары им. М.Д. Челышова", "latitude": 53.18329, "longitude": 50.088973},
{"name": "Самарский епархиальный церковно-исторический музей", "latitude": 53.205803, "longitude": 50.141372},
{"name": "Музей Археологии Поволжья", "latitude": 53.192301, "longitude": 50.110281},
{"name": "Музей истории художественных промыслов Нижегородской Большая Покровская", "latitude": 56.326797, "longitude": 44.006516},
{"name": "Музей А.М.Горького", "latitude": 56.325918, "longitude": 44.026046},
{"name": "Государственный Русский музей фотографии", "latitude": 56.323897, "longitude": 44.003139},
{"name": "Технический музей Большая Покровская", "latitude": 56.326797, "longitude": 44.006516},
{"name": "Музей А. Д. Сахарова", "latitude": 56.232419, "longitude": 43.95056},
{"name": "Нижегородский государственный художественный музей (русская и советская живопись)", "latitude": 56.329552, "longitude": 44.0064},
{"name": "Музей речного флота", "latitude": 56.327985, "longitude": 44.015931},
{"name": "Музей старинной техники и инструментов", "latitude": 56.318136, "longitude": 43.995234},
{"name": "Нижегородский Городской Музей Техники И Оборонной Промышленности", "latitude": 56.32482, "longitude": 44.018716},
{"name": "Музей истории завода \"Красное Сормово\"", "latitude": 56.359813, "longitude": 43.870026},
{"name": "Музей Истории и Трудовой славы ГАЗ", "latitude": 56.254727, "longitude": 43.893176},
{"name": "Музей истории города Уфы", "latitude": 54.7336360735005, "longitude": 55.951346541664044},
{"name": "Дом-музей В.И. Ленина", "latitude": 54.732881, "longitude": 55.953211},
{"name": "Республиканский историко-культурный музей-заповедник Древняя Уфа", "latitude": 54.733974025182896, "longitude": 55.9468867281723},
{"name": "Музей современного искусства имени Наиля Латфуллина", "latitude": 54.73289755743139, "longitude": 55.94484680489321},
{"name": "Музей истории Башкирской организации Всероссийского общества слепых городского округа город Уфа РБ", "latitude": 54.72892141235827, "longitude": 55.96444884854879},
{"name": "Музей истории органов безопасности управления ФСБ", "latitude": 54.728530260538825, "longitude": 55.94978438095095},
{"name": "Национальный литературный музей Республики Башкортостан", "latitude": 54.728883, "longitude": 55.976621},
{"name": "Музей Министерства внутренних дел по Республике Башкортостан", "latitude": 54.726871, "longitude": 55.950013},
{"name": "Музей Почты УФПС РБ, Почта России", "latitude": 54.726418, "longitude": 55.947938},
{"name": "Музей полярников имени В.И. Альбанова", "latitude": 54.725758, "longitude": 55.936853},
{"name": "Башкирский государственный художественный музей имени Михаила Васильевича Нестерова", "latitude": 54.7245174812755, "longitude": 55.93606949933623},
{"name": "Музей развития образования Республики Башкортостан", "latitude": 54.72396760870022, "longitude": 55.937245965606685},
{"name": "Мемориальный дом-музей Мажита Гафури", "latitude": 54.722789, "longitude": 55.936584},
{"name": "Музей археологии и этнографии Института этнологических исследований им. Р.Г. Кузеева", "latitude": 54.721068, "longitude": 55.939216},
{"name": "Зоологический музей Башкирского государственного университета", "latitude": 54.72013821117435, "longitude": 55.933894135075825},
{"name": "Музей Башкирского государственного театра оперы и балета", "latitude": 54.722418853265495, "longitude": 55.9453068657455},
{"name": "Национальный музей Республики Башкортостан", "latitude": 54.72013389739121, "longitude": 55.946777949073734},
{"name": "Дом-музей Ш. Худайбердина", "latitude": 54.719368, "longitude": 55.955825},
{"name": "Музей истории парламента Республики Башкортостан", "latitude": 54.717792, "longitude": 55.946339},
{"name": "Мемориальный дом-музей А.Э. Тюлькина", "latitude": 54.714724, "longitude": 55.945432},
{"name": "Дом-музей С.Т. Аксакова", "latitude": 54.713455, "longitude": 55.951603},
{"name": "Музей Пермского отделения Свердловской железной дороги", "latitude": 57.996482, "longitude": 56.188732},
{"name": "Пермская государственная художественная галерея", "latitude": 58.016414, "longitude": 56.234689},
{"name": "Музей пермских древностей", "latitude": 58.014126, "longitude": 56.24546},
{"name": "ГБУК Пермского края Мемориальный музей-заповедник истории политических репрессий Пермь-36", "latitude": 58.020128, "longitude": 56.270874},
{"name": "МУЗЕЙ ИСТОРИИ САРАТОВСКОЙ МИТРОПОЛИИ", "latitude": 51.525679, "longitude": 46.027295},
{"name": "Музей самоваров", "latitude": 51.536996, "longitude": 46.030852},
{"name": "Саратовский областной музей краеведения", "latitude": 51.527567, "longitude": 46.056023},
{"name": "Музей речного флота", "latitude": 51.521095, "longitude": 46.006301},
{"name": "Музей истории саратовской полиции", "latitude": 51.5441676271089, "longitude": 46.00809231349183},
{"name": "Тольяттинский краеведческий музей", "latitude": 53.501935997704685, "longitude": 49.42072019577029},
{"name": "Музей ОАО \"АВТОВАЗ\"", "latitude": 53.552367, "longitude": 49.272153},
{"name": "Тольяттинский художественный музей", "latitude": 53.50314492328798, "longitude": 49.420269589627814},
{"name": "Музей Тольяттинского Государственного Университета", "latitude": 53.500665, "longitude": 49.397908},
{"name": "Национальный Музей Удмуртской Республики", "latitude": 56.842393, "longitude": 53.228504},
{"name": "Музей Хлеба", "latitude": 56.872826, "longitude": 53.260026},
{"name": "Музей Ижевского Автомобильного Завода", "latitude": 56.886263, "longitude": 53.309631},
{"name": "Музей Ижевска", "latitude": 56.84676, "longitude": 53.19789},
{"name": "Музейно-выставочный комплекс стрелкового оружия им. М.Т. Калашникова", "latitude": 56.850742, "longitude": 53.20672},
{"name": "Ульяновский областной краеведческий музей им. И.А. Гончарова", "latitude": 54.315363, "longitude": 48.405557},
{"name": "Литературный музей \"Дом Языковых\"", "latitude": 54.318341, "longitude": 48.403482},
{"name": "Симбирская Классическая Гимназия Музей", "latitude": 54.31609496725722, "longitude": 48.40299244113913},
{"name": "Ульяновский областной художественный музей", "latitude": 54.315363, "longitude": 48.405557},
{"name": "Музей воды", "latitude": 55.663116, "longitude": 52.276326},
{"name": "Историко-краеведческий музей города Набережные Челны", "latitude": 55.685762, "longitude": 52.295568},
{"name": "Музей истории пожарной охраны", "latitude": 55.75725408838926, "longitude": 52.451413280426},
{"name": "Музей Боевой Славы (ВОВ, Афганистан, Кавказ)", "latitude": 55.728991, "longitude": 52.406627},
{"name": "Оренбургский губернаторский историко-краеведческий музей", "latitude": 51.762057, "longitude": 55.102219},
{"name": "Музей истории Оренбурга", "latitude": 51.755523, "longitude": 55.10849},
{"name": "Народный музей защитников Отечества", "latitude": 51.77948103958744, "longitude": 55.086406881614664},
{"name": "Мемориальный музей-гауптвахта Тараса Шевченко", "latitude": 51.76051735005804, "longitude": 55.10328859391786},
{"name": "Галерея выдающихся оренбуржцев", "latitude": 51.764453, "longitude": 55.100108},
{"name": "Пензенский государственный краеведческий музей", "latitude": 53.186361, "longitude": 45.007545},
{"name": "ГБУК Пензенская областная картинная галерея имени К.А. Савицкого", "latitude": 53.184958, "longitude": 45.010168},
{"name": "ГБУК Объединение государственных литературно-мемориальных музеев Пензенской области", "latitude": 53.185379, "longitude": 45.016214},
{"name": "Музей народного творчества", "latitude": 53.175238, "longitude": 45.005551},
{"name": "Дом-музей В. О. Ключевского", "latitude": 53.191988, "longitude": 45.007707},
{"name": "Чувашский государственный художественный музей", "latitude": 56.141147, "longitude": 47.261167},
{"name": "Центр современного искусства", "latitude": 56.14565, "longitude": 47.248168},
{"name": "Музей академика-кораблестроителя А.Н. Крылова", "latitude": 56.131782, "longitude": 47.24515},
{"name": "Археолого-этнографический музей имени профессора Каховского Василия Филипповича", "latitude": 56.139095, "longitude": 47.244916},
{"name": "Музей В.И. Чапаева", "latitude": 56.116167, "longitude": 47.257376},
{"name": "Ростовский музей космонавтики", "latitude": 47.211245, "longitude": 39.619703},
{"name": "Ростовский областной музей изобразительных искусств", "latitude": 47.225709, "longitude": 39.715807},
{"name": "Музей железнодорожной техники Северо-Кавказской железной дороги", "latitude": 47.190481, "longitude": 39.636225},
{"name": "Археологический музей-заповедник «Танаис»", "latitude": 47.269111, "longitude": 39.334555},
{"name": "Новочеркасский музей истории Донского казачества", "latitude": 47.412306, "longitude": 40.104314},
{"name": "Аксайский военно-исторический музей", "latitude": 47.2713, "longitude": 39.891289},
{"name": "Волгодонский музей истории донской народной культуры «Казачий курень»", "latitude": 47.496935, "longitude": 42.185392},
{"name": "Усадьба-музей М. А. Шолохова в станице Вёшенской", "latitude": 49.626463, "longitude": 41.728758}
]