[
	{"name": "Столбы выветривания", "latitude": 62.221329, "longitude": 59.305196},
	{"name": "Гора Народная", "latitude": 65.0349, "longitude": 60.115},
  {"name": "Гора Манарага", "latitude": 65.039679, "longitude": 59.76726},
  {"name": "Водопад Буредан", "latitude": 68.728056, "longitude": 65.352222},
  {"name": "Гора Еркусей (Шаман-Гора)", "latitude": 65.221364, "longitude": 60.348099},
  {"name": "Река Печора", "latitude": 67.683622, "longitude": 52.490428},
  {"name": "Река Пеша", "latitude": 66.793508, "longitude": 47.726111},
  {"name": "Река Ома", "latitude": 66.686917, "longitude": 46.374264},
  {"name": "Река Индига", "latitude": 67.459386, "longitude": 49.378361},
  {"name": "Чёшская губа", "latitude": 67.330048, "longitude": 46.500698},
  {"name": "Печорская губа", "latitude": 68.661447, "longitude": 54.997287},
  {"name": "Поморский пролив", "latitude": 68.604739, "longitude": 50.284267},
  {"name": "Остров Колгуев", "latitude": 69.107757, "longitude": 49.119853},
  {"name": "Озеро Голодная Губа", "latitude": 67.863923, "longitude": 52.721486},
  {"name": "Озеро Урдюжское", "latitude": 67.238474, "longitude": 50.180269},
  {"name": "Сульские водопады", "latitude": 66.895059, "longitude": 49.538057},
  {"name": "Остров Вайгач", "latitude": 70.016667, "longitude": 59.55},
  {"name": "Каньон «Большие ворота»", "latitude": 67.314353, "longitude": 49.314534},
  {"name": "Памятник комару нефтянику", "latitude": 65.987386, "longitude": 57.563046},
  {"name": "смотровая площадка в морпорту (Нарьян-Мар)", "latitude": 67.64667, "longitude": 52.99417},
  {"name": "озеро Хутыто", "latitude": 68.01827, "longitude": 59.664273},
  {"name": "озеро Сейзасрёто", "latitude": 68.695883, "longitude": 60.850163},
  {"name": "озеро Большое Камбальничье", "latitude": 68.6257, "longitude": 52.6056},
  {"name": "озеро Ошкото", "latitude": 67.746175, "longitude": 57.229256},
  {"name": "Кий-остров", "latitude": 64.0022, "longitude": 37.8783},
  {"name": "Обсерватория им. Эрнста Кренкеля", "latitude": 80.452222, "longitude": 58.051758},
  {"name": "р. Северная Двина", "latitude": 62.730779, "longitude": 43.258597},
  {"name": "Мыс Пур-Наволок", "latitude": 64.475624, "longitude": 40.50718},
  {"name": "Озеро Лача", "latitude": 61.333333, "longitude": 61.333333},
  {"name": "Белое море", "latitude": 66.1119, "longitude": 38.2338},
  {"name": "р. Пинега", "latitude": 59.821, "longitude": 33.506},
  {"name": "Водопад Падун", "latitude": 63.882736, "longitude": 34.31045},
  {"name": "Урочище Опоки", "latitude": 56.906, "longitude": 30.816},
  {"name": "Село Сизьма", "latitude": 59.4142, "longitude": 38.7083},
  {"name": "село Горицы", "latitude": 59.8711194, "longitude": 38.2588892},
  {"name": "Кольский залив", "latitude": 69.135, "longitude": 33.466},
  {"name": "село Териберка", "latitude": 69.16417, "longitude": 35.14056},
  {"name": "Хибины (горы)", "latitude": 67.730312, "longitude": 33.710057},
  {"name": "Юдычвумчорр", "latitude": 67.734722, "longitude": 33.726111},
  {"name": "Мемориал «Алёша»", "latitude": 68.993056, "longitude": 33.071667},
  {"name": "Сейдозеро", "latitude": 67.814984, "longitude": 34.848857},
  {"name": "оз. Ловно", "latitude": 66.840297, "longitude": 35.172729},
  {"name": "Аметисты мыса Корабль", "latitude": 66.294072, "longitude": 36.389342},
  {"name": "Кузоменьские пески", "latitude": 66.284025, "longitude": 36.861819},
  {"name": "Сейды", "latitude": 69.186468, "longitude": 35.127593},
  {"name": "Семёновское озеро", "latitude": 68.991556, "longitude": 33.08992},
  {"name": "Ловозерские тундры", "latitude": 67.845833, "longitude": 34.669722},
  {"name": "Село Варзуга", "latitude": 68.974749, "longitude": 33.059807},
  {"name": "Амазониты горы Парусная", "latitude": 67.6491139, "longitude": 37.1807667},
  {"name": "Водопад на реке Шуонийок", "latitude": 69.346, "longitude": 30.046},
  {"name": "Озеро Комсозеро", "latitude": 67.7430389, "longitude": 30.9230528},
  {"name": "«Юкспоррлак»", "latitude": 67.6655583, "longitude": 33.8548583},
  {"name": "Бараний лоб у озера Семёновское", "latitude": 68.99472, "longitude": 33.07222},
  {"name": "«Гранитоиды острова Микков»", "latitude": 66.706207, "longitude": 33.011705},
  {"name": "«Лечебные грязи Палкиной губы»", "latitude": 67.062575, "longitude": 32.289436},
  {"name": "Губа Воронья", "latitude": 66.766237, "longitude": 33.632615},
  {"name": "Кандалакшский берег", "latitude": 66.778056, "longitude": 33.395278},
  {"name": "Водопад Кивач", "latitude": 62.268, "longitude": 33.980384},
  {"name": "Вулкан Гирвас", "latitude": 62.484776, "longitude": 33.670096},
  {"name": "Гора Воттоваара", "latitude": 63.074251, "longitude": 32.623114},
  {"name": "Ладожское озеро", "latitude": 60.785, "longitude": 31.715},
  {"name": "Остров Валаам", "latitude": 61.3899, "longitude": 30.9471},
  {"name": "Водопад «Белые мосты»", "latitude": 61.7551484, "longitude": 31.4160496},
  {"name": "Гора Нуорунен", "latitude": 66.144722, "longitude": 30.244722},
  {"name": "Лахденпохья", "latitude": 61.522222, "longitude": 30.1925},
  {"name": "Деревня Кинерма", "latitude": 61.527222, "longitude": 32.828889},
  {"name": "Деревня Пегрема", "latitude": 62.3265, "longitude": 34.766},
  {"name": "Гора Сампо", "latitude": 62.039219, "longitude": 34.096913},
  {"name": "Гора Филина", "latitude": 61.548857, "longitude": 30.199141},
  {"name": "Марциальные воды", "latitude": 62.156608, "longitude": 33.901688},
  {"name": "Залив Ляппяярви", "latitude": 61.69547, "longitude": 30.696523},
  {"name": "Шардонский архипелаг", "latitude": 61.942343, "longitude": 34.737697},
  {"name": "Озеро Урозеро", "latitude": 59.866879, "longitude": 37.383157},
  {"name": "Ильинский Водлозерский погост", "latitude": 62.380093, "longitude": 36.9078},
  {"name": "Водопад «Воицкий Падун»", "latitude": 62.268, "longitude": 33.980384},
  {"name": "Водопад Куми-порог", "latitude": 65.276142, "longitude": 30.198763},
  {"name": "Рускеальские водопады", "latitude": 61.915509, "longitude": 30.626539},
  {"name": "Озеро Янисъярви", "latitude": 61.966667, "longitude": 30.916667},
  {"name": "Водопад Киваккакоски", "latitude": 62.268, "longitude": 33.980384},
  {"name": "Радоновые озёра", "latitude": 59.734545, "longitude": 29.401247},
  {"name": "Федоровский городок", "latitude": 59.725456, "longitude": 30.394112},
  {"name": "Остров Коневец", "latitude": 60.86016, "longitude": 30.610129},
  {"name": "Липовское озеро", "latitude": 59.744134, "longitude": 28.152419},
  {"name": "Тосненский водопад", "latitude": 59.644625, "longitude": 30.808623},
  {"name": "Лосевские Пороги", "latitude": 60.680176, "longitude": 29.998775},
  {"name": "Водопад на реке Караста", "latitude": 59.914903, "longitude": 29.753956},
  {"name": "«Скала любви»", "latitude": 61.0638, "longitude": 28.8705},
  {"name": "Староладожская пещера и Святой источник", "latitude": 59.542303, "longitude": 28.747203},
  {"name": "Горчаковщинский водопад", "latitude": 60.019167, "longitude": 32.330792},
  {"name": "Большие скалы", "latitude": 61.166667, "longitude": 29.7},
  {"name": "Ястребиное озеро", "latitude": 61.141847, "longitude": 29.698131},
  {"name": "Остров Маячный", "latitude": 60.572191, "longitude": 28.425085},
  {"name": "Деревня Верхние Мандроги", "latitude": 60.89842, "longitude": 33.81942},
  {"name": "Мосты", "latitude": 59.942222, "longitude": 30.338611},
  {"name": "Остров «Новая Голландия»", "latitude": 59.9292549, "longitude": 30.2898002},
  {"name": "Кронштадт", "latitude": 59.99541, "longitude": 29.76668},
  {"name": "Озеро Селигер", "latitude": 57.239082, "longitude": 33.034332},
  {"name": "Озеро Ильмень", "latitude": 58.2667, "longitude": 31.2833},
  {"name": "Боровичи", "latitude": 58.3878, "longitude": 33.9155},
  {"name": "Река Понеретка", "latitude": 58.28315, "longitude": 34.039541},
  {"name": "Водопад «Голубая лагуна»", "latitude": 63.880311, "longitude": -22.44927},
  {"name": "Карамельный водопад", "latitude": 58.464633, "longitude": 30.970706},
  {"name": "Чудское озеро", "latitude": 58.688003, "longitude": 27.443691},
  {"name": "Куршская коса", "latitude": 54.9757564, "longitude": 20.520279},
  {"name": "Виштынецкое озеро", "latitude": 54.426944, "longitude": 22.725},
  {"name": "Река Шешупе", "latitude": 54.967581, "longitude": 22.714524},
  {"name": "Река Анграпа", "latitude": 54.476646, "longitude": 22.04428},
  {"name": "Река Лава", "latitude": 54.39826, "longitude": 21.022336},
  {"name": "Река Инструч", "latitude": 54.81226, "longitude": 22.072855},
  {"name": "Река Преголя", "latitude": 54.645994, "longitude": 21.070219},
  {"name": "Озеро Мариново", "latitude": 54.413653, "longitude": 22.507173},
  {"name": "Красное озеро", "latitude": 54.350511, "longitude": 22.325138},
  {"name": "Озеро Лебедь", "latitude": 55.245163, "longitude": 20.944248},
  {"name": "Озеро Чайка", "latitude": 55.151631, "longitude": 20.828563},
  {"name": "Озеро Янтарное", "latitude": 54.887325, "longitude": 19.948436},
  {"name": "Голубые озера", "latitude": 54.648146, "longitude": 20.354639},
  {"name": "Лесное озеро", "latitude": 54.717142, "longitude": 20.389574},
  {"name": "Озеро Карповское", "latitude": 54.698811, "longitude": 20.406921},
  {"name": "Останкинская башня", "latitude": 55.819721, "longitude": 37.611704},
    {"name": "Смотровая площадка PANORAMA360 в ММДЦ «Москва-Сити»", "latitude": 55.7499, "longitude": 37.537237},
    {"name": "Воробьёвы горы", "latitude": 55.709382, "longitude": 37.54225},
    {"name": "Смотровая площадка «Выше Только Любовь»", "latitude": 55.74931, "longitude": 37.534445},
    {"name": "Центральная Смотровая ЦДМ", "latitude": 55.760094, "longitude": 37.624905},
    {"name": "Московская монорельсовая транспортная система", "latitude": 55.821831, "longitude": 37.61194},
    {"name": "Солнце Москвы", "latitude": 55.826726, "longitude": 37.626548},
    {"name": "Колесо обозрения в парке развлечений «Сказка»", "latitude": 55.772172, "longitude": 37.434791},
    {"name": "Колесо обозрения в парке «Сокольники»", "latitude": 55.793959, "longitude": 37.673886},
    {"name": "Колесо обозрения у Измайловского Кремля", "latitude": 55.770178, "longitude": 37.750795},
    {"name": "Смотровая площадка", "latitude": 55.744499, "longitude": 37.605863},
    {"name": "Парящий мост", "latitude": 55.749475, "longitude": 37.629421},
    {"name": "Смотровая площадка гостиницы Украина", "latitude": 55.751226, "longitude": 37.565686},
    {"name": "Смотровая площадка РАН", "latitude": 55.712352, "longitude": 37.578231},
    {"name": "Смотровая площадка", "latitude": 55.667756, "longitude": 37.671868},
    {"name": "Колесо Обозрения в Коломне", "latitude": 55.085006, "longitude": 38.779664},
    {"name": "Блинная Гора", "latitude": 56.307346, "longitude": 38.134955},
    {"name": "Смотровая площадка", "latitude": 55.729114, "longitude": 36.814617},
    {"name": "Смотровая площадка на Мясиной горе с видом на Монастырь", "latitude": 55.722621, "longitude": 36.823454},
    {"name": "Смотровая площадка «Взлетка»", "latitude": 55.978974, "longitude": 37.454069},
    {"name": "Колесо обозрения", "latitude": 55.894169, "longitude": 37.459792},
    {"name": "Смотровая площадка", "latitude": 54.837026, "longitude": 38.142562},
    {"name": "Смотровая площадка", "latitude": 55.894859, "longitude": 37.773021},
    {"name": "Колесо обозрения", "latitude": 55.825835, "longitude": 37.329516},
    {"name": "Смотровая площадка", "latitude": 56.037966, "longitude": 35.957746},
    {"name": "Смотровая Площадка Серпуховского Кремля", "latitude": 54.916198, "longitude": 37.403439},
    {"name": "Колесо обозрения", "latitude": 54.928715, "longitude": 37.443329},
    {"name": "Смотровая площадка на Оке", "latitude": 54.883552, "longitude": 37.426449},
    {"name": "Смотровая площадка у Высоцкого монастыря", "latitude": 54.901623, "longitude": 37.417605},
    {"name": "Смотровая площадка", "latitude": 56.303821, "longitude": 37.499183},
    {"name": "Водонапорная башня 1916 года", "latitude": 54.763601, "longitude": 38.87674},
    {"name": "Трубежная набережная Рязани", "latitude": 54.635996, "longitude": 39.747434},
    {"name": "Колесо обозрения", "latitude": 54.695335, "longitude": 39.799284},
    {"name": "Колесо обозрения", "latitude": 52.725928, "longitude": 41.458772},
    {"name": "Колесо обозрения", "latitude": 52.886222, "longitude": 40.517541},
    {"name": "Колесо обозрения", "latitude": 51.7076, "longitude": 39.161592},
    {"name": "Смотровая площадка", "latitude": 51.670493, "longitude": 39.210597},
    {"name": "Смотровая площадка", "latitude": 51.753602, "longitude": 39.228816},
    {"name": "Белая Гора", "latitude": 51.775253, "longitude": 39.23899},
    {"name": "Смотровая площадка", "latitude": 51.709187, "longitude": 39.253297},
    {"name": "Второй трамвайный уровень Северного моста", "latitude": 51.691492, "longitude": 39.241238},
    {"name": "Смотровая площадка", "latitude": 51.647532, "longitude": 39.232054},
    {"name": "Смотровая площадка", "latitude": 50.966712, "longitude": 39.292588},
    {"name": "Смотровая площадка", "latitude": 50.580618, "longitude": 36.583857},
    {"name": "Смотровая площадка", "latitude": 50.582189, "longitude": 36.595646},
    {"name": "Смотровая площадка", "latitude": 51.283608, "longitude": 37.660532},
    {"name": "Смотровая площадка", "latitude": 52.313456, "longitude": 35.405467},
    {"name": "Смотровая площадка", "latitude": 52.984178, "longitude": 36.097789},
    {"name": "Смотровая площадка", "latitude": 52.971773, "longitude": 36.068362},
    {"name": "Колесо обозрения", "latitude": 52.604598, "longitude": 39.605584},
    {"name": "Смотровая площадка", "latitude": 52.609591, "longitude": 39.602388},
    {"name": "Смотровая площадка", "latitude": 52.613811, "longitude": 39.610487},
    {"name": "Колесо обозрения", "latitude": 52.627619, "longitude": 38.497407},
    {"name": "Аргамачья гора", "latitude": 52.6252, "longitude": 38.519176},
    {"name": "Смотровая площадка", "latitude": 52.618708, "longitude": 38.508967},
    {"name": "Смотровая площадка", "latitude": 52.636722, "longitude": 38.499774},
    {"name": "Вид с железнодорожного моста", "latitude": 52.605626, "longitude": 38.512191},
    {"name": "Воронов камень", "latitude": 52.568691, "longitude": 38.385172},
    {"name": "Скальный массив Звонари", "latitude": 52.575115, "longitude": 38.352527},
    {"name": "Колесо обозрения", "latitude": 54.191777, "longitude": 37.637566},
    {"name": "Смотровая площадка", "latitude": 54.502984, "longitude": 37.10673},
    {"name": "Смотровая площадка", "latitude": 54.516678, "longitude": 37.082329},
    {"name": "Смотровая площадка", "latitude": 53.771506, "longitude": 38.13827},
    {"name": "Колесо обозрения", "latitude": 54.505699, "longitude": 36.248211},
    {"name": "Смотровая площадка", "latitude": 54.505671, "longitude": 36.246033},
    {"name": "Смотровая площадка", "latitude": 54.510171, "longitude": 36.249716},
    {"name": "Смотровая площадка", "latitude": 54.51746, "longitude": 36.229544},
    {"name": "Смотровая площадка", "latitude": 54.51043, "longitude": 36.234764},
    {"name": "Смотровая вышка", "latitude": 54.514107, "longitude": 36.223148},
    {"name": "Смотровая площадка", "latitude": 55.173965, "longitude": 36.644671},
    {"name": "Смотровая площадка", "latitude": 55.016143, "longitude": 36.45646},
    {"name": "Смотровая площадка", "latitude": 55.20588, "longitude": 36.487609},
    {"name": "Смотровая площадка", "latitude": 54.026094, "longitude": 35.795081},
    {"name": "Смотровая площадка", "latitude": 54.615112, "longitude": 35.996058},
    {"name": "Колесо обозрения", "latitude": 53.271217, "longitude": 34.366968},
    {"name": "Смотровая площадка", "latitude": 53.239101, "longitude": 34.373795},
    {"name": "Покровская гора", "latitude": 53.244345, "longitude": 34.373596},
    {"name": "Смотровая площадка", "latitude": 53.272183, "longitude": 34.364794},
    {"name": "Соборная гора", "latitude": 54.78816, "longitude": 32.053921},
    {"name": "Смотровая площадка", "latitude": 54.785733, "longitude": 32.043963},
    {"name": "Смотровая площадка", "latitude": 54.790954, "longitude": 32.04637},
    {"name": "Колесо обозрения", "latitude": 54.781745, "longitude": 32.037866},
    {"name": "Смотровая площадка", "latitude": 56.862765, "longitude": 35.904145},
    {"name": "Гора Соборная", "latitude": 56.259488, "longitude": 34.340268},
    {"name": "Смотровая площадка", "latitude": 56.256536, "longitude": 34.317113},
    {"name": "Колесо обозрения Золотое кольцо", "latitude": 57.61473, "longitude": 39.867405},
    {"name": "Смотровая площадка", "latitude": 57.621222, "longitude": 39.889858},
    {"name": "Парк аттракционов", "latitude": 58.044766, "longitude": 38.851037},
    {"name": "Смотровая площадка", "latitude": 58.04675, "longitude": 38.855976},
    {"name": "Молодёжная лестница", "latitude": 57.533495, "longitude": 38.323581},
    {"name": "Смотровая площадка Ростовского Кремля", "latitude": 57.184805, "longitude": 39.417399},
    {"name": "Смотровая площадка Спасо-Яковлевского Димитриевого монастыря", "latitude": 57.17374, "longitude": 39.391197},
    {"name": "Александрова гора", "latitude": 56.781946, "longitude": 38.831655},
    {"name": "Смотровая площадка", "latitude": 57.759683, "longitude": 40.940846},
    {"name": "Смотровая площадка на Лысой горе", "latitude": 57.746661, "longitude": 40.895281},
    {"name": "Колесо обозрения", "latitude": 57.00297, "longitude": 40.976711},
    {"name": "Небо 33", "latitude": 56.14194, "longitude": 40.415969},
    {"name": "Круговой обзор", "latitude": 55.578913, "longitude": 42.059214},
    {"name": "Смотровая площадка", "latitude": 55.58054, "longitude": 42.061504},
    {"name": "Смотровая площадка", "latitude": 55.542278, "longitude": 42.089961},
    {"name": "Смотровая площадка", "latitude": 56.128752, "longitude": 40.411607},
    {"name": "Смотровая площадка", "latitude": 56.127195, "longitude": 40.402835},
    {"name": "Смотровая площадка водонапорной башни", "latitude": 56.125157, "longitude": 40.39871},
    {"name": "Смотровая площадка", "latitude": 56.126437, "longitude": 40.402649},
    {"name": "Лысая гора", "latitude": 56.192535, "longitude": 42.653795},
	{"name": "Колесо обозрения", "latitude": 45.043220, "longitude": 41.974087},
{"name": "Солдатская площадь", "latitude": 45.049111, "longitude": 41.973722},
{"name": "Кафедральная площадь", "latitude": 45.050200, "longitude": 41.978990},
{"name": "Смотровая площадка", "latitude": 45.013711, "longitude": 41.806532},
{"name": "Михайловская гора", "latitude": 44.040272, "longitude": 43.086749},
{"name": "Ленинские скалы", "latitude": 44.047067, "longitude": 43.081855},
{"name": "Смотровая площадка", "latitude": 44.054264, "longitude": 43.075622},
{"name": "Смотровая площадка", "latitude": 44.040264, "longitude": 43.091367},
{"name": "гора Машук", "latitude": 44.051173, "longitude": 43.086021},
{"name": "Колесо обозрения", "latitude": 43.903138, "longitude": 42.718733},
{"name": "Красное солнышко", "latitude": 43.899595, "longitude": 42.750645},
{"name": "Гора Крестовая", "latitude": 43.899077, "longitude": 42.720327},
{"name": "Гора Сосновая 912 метров", "latitude": 43.893118, "longitude": 42.723574},
{"name": "Солдатская горка 930 м", "latitude": 43.891076, "longitude": 42.713399},
{"name": "Серые камни", "latitude": 43.898425, "longitude": 42.733343},
{"name": "Скала Человек", "latitude": 43.889208, "longitude": 42.753648},
{"name": "Гора Пикет", "latitude": 43.884246, "longitude": 42.731947},
{"name": "Малое Седло", "latitude": 43.885329, "longitude": 42.767483},
{"name": "Гора Шульгач", "latitude": 43.883650, "longitude": 42.782546},
{"name": "Лермонтовская скала", "latitude": 43.868414, "longitude": 42.737716},
{"name": "Большое Седло", "latitude": 43.886953, "longitude": 42.788444},
{"name": "Гора Кольцо", "latitude": 43.941463, "longitude": 42.693632},
{"name": "Гора Железная", "latitude": 44.138927, "longitude": 43.030363},
{"name": "Селитряные скалы", "latitude": 44.156088, "longitude": 43.044073},
{"name": "Гора Медовая", "latitude": 44.134700, "longitude": 43.009238},
{"name": "Гора Бештау", "latitude": 44.098030, "longitude": 43.022101},
{"name": "Гора Малый Бештау", "latitude": 44.106559, "longitude": 43.017597},
{"name": "Гора Острая", "latitude": 44.118432, "longitude": 42.997505},
{"name": "Смотровая площадка в парке «Зеленый остров» ", "latitude": 44.229066, "longitude": 42.042612},
{"name": "Плато Бермамыт", "latitude": 43.711662, "longitude": 42.441171},
{"name": "Архыз", "latitude": 43.543067, "longitude": 41.181210},
{"name": "Домбай", "latitude": 43.285625, "longitude": 41.636821},
{"name": "Гора Малая Кизиловка", "latitude": 43.460676, "longitude": 43.599715},
{"name": "Гора Эльбрус 5642 м", "latitude": 43.352469, "longitude": 42.437890},
{"name": "Гора Чегет", "latitude": 43.245183, "longitude": 42.522966},
{"name": "Старая канатка", "latitude": 43.437437, "longitude": 43.593747},
{"name": "Колесо обозрения", "latitude": 43.027721, "longitude": 44.677123},
{"name": "Лысая гора", "latitude": 42.987858, "longitude": 44.640031},
{"name": "Перевал Архонский", "latitude": 42.831182, "longitude": 44.212334},
{"name": "Колесо Балсага", "latitude": 42.850126, "longitude": 44.442852},
{"name": "Горнолыжный комплекс Армхи", "latitude": 42.806741, "longitude": 44.704836},
{"name": "Лестница в небеса", "latitude": 43.267089, "longitude": 45.717265},
{"name": "Гора Тарки-тау", "latitude": 42.940136, "longitude": 47.453922},
{"name": "Гора Пушкин Тау", "latitude": 42.559511, "longitude": 47.843461},
{"name": "Сулакский Каньон", "latitude": 43.021772, "longitude": 46.826379},
{"name": "Смотровая площадка", "latitude": 43.016592, "longitude": 46.832421},
{"name": "Смотровая площадка", "latitude": 43.028861, "longitude": 46.823990},
{"name": "Водопад Тобот", "latitude": 42.554626, "longitude": 46.719536},
{"name": "Смотровая площадка на Хунзахский каньон", "latitude": 42.553516, "longitude": 46.721629},
{"name": "Колесо обозрения \"Очень большое\"", "latitude": 53.23052682641655, "longitude": 50.19808242858878},
{"name": "Колесо обозрения \"Вокруг света\"", "latitude": 55.815461656463896, "longitude": 49.132394811916576},
{"name": "Колесо обозрения \"НиНо\"", "latitude": 56.32414999756274, "longitude": 44.03585564133977},
{"name": "Висячий мост", "latitude": 54.71192834078426, "longitude": 55.95434360517114},
{"name": "Водонапорная башня", "latitude": 54.722108, "longitude": 55.918878},
{"name": "Башня смерти", "latitude": 57.994908, "longitude": 56.25394},
{"name": "Пермская телебашня", "latitude": 58.005672, "longitude": 56.291185},
{"name": "Водонапорная башня 1915 года", "latitude": 56.850934, "longitude": 53.207708},
{"name": "Башня Ульяновск", "latitude": 54.31421523455141, "longitude": 48.501870608675546},
{"name": "Бывшая водонапорная башня", "latitude": 51.77502, "longitude": 55.107466},
{"name": "Оборонительный вал", "latitude": 53.1826740251631, "longitude": 45.01523053110502},
{"name": "Шупашкар", "latitude": 56.14849686323186, "longitude": 47.25917475335799}
]
