[
  {"name": "Останкинская башня", "latitude": 55.819721, "longitude": 37.611704},
  {"name": "Смотровая площадка PANORAMA360 в ММДЦ «Москва-Сити»", "latitude": 55.749900, "longitude": 37.537237},
  {"name": "Воробьёвы горы", "latitude": 55.709382, "longitude": 37.542250},
  {"name": "Смотровая площадка «Выше Только Любовь»", "latitude": 55.749310, "longitude": 37.534445},
  {"name": "Центральная Смотровая ЦДМ", "latitude": 55.760094, "longitude": 37.624905},
  {"name": "Московская монорельсовая транспортная система", "latitude": 55.821831, "longitude": 37.611940},
  {"name": "Солнце Москвы", "latitude": 55.826726, "longitude": 37.626548},
  {"name": "Колесо обозрения в парке развлечений «Сказка»", "latitude": 55.772172, "longitude": 37.434791},
  {"name": "Колесо обозрения в парке «Сокольники»", "latitude": 55.793959, "longitude": 37.673886},
  {"name": "Колесо обозрения у Измайловского Кремля", "latitude": 55.770178, "longitude": 37.750795},
  {"name": "Смотровая площадка", "latitude": 55.744499, "longitude": 37.605863},
  {"name": "Парящий мост", "latitude": 55.749475, "longitude": 37.629421},
  {"name": "Смотровая площадка гостиницы Украина", "latitude": 55.751226, "longitude": 37.565686},
  {"name": "Смотровая площадка РАН", "latitude": 55.712352, "longitude": 37.578231},
  {"name": "Смотровая площадка", "latitude": 55.667756, "longitude": 37.671868}
]
