[
    {
        "name": "Русский мост",
        "latitude": 43.064860,
        "longitude": 131.910413,
        "photoUrl": "https://sportishka.com/uploads/posts/2022-11/1667575580_1-sportishka-com-p-vantovii-most-na-ostrov-russkii-vkontakte-1.jpg"
    },
    {
        "name": "Маяк Анива",
        "latitude": 46.018884,
        "longitude": 143.413989,
        "photoUrl": "https://img.geliophoto.com/aniva/15_aniva.jpg"
    },
    {
        "name": "Токаревский маяк (маяк Эгершельд)",
        "latitude": 43.073160,
        "longitude": 131.843129,
        "photoUrl": "https://sun9-8.userapi.com/impg/iLEz8AowNixRlm1dyYKby-drXrYdAU-AFuhItg/ZYkdUuISpFg.jpg?size=1280x853&quality=95&sign=e4ae44e21f911b8312e28861712dbe44&c_uniq_tag=6TD0jB-nxj4MWTV3t40aB76OWK255Xya-5epPKkYtMM&type=album"
    },
    {
        "name": "Набережная реки Бира",
        "latitude": 49.000934,
        "longitude": 132.463074,
        "photoUrl": "https://panevin.ru/uploads/photo/2019/naberezhnaya_reki_bira_1_1024.jpg"
    },
    {
        "name": "Село Оймякон",
        "latitude": 63.464547,
        "longitude": 142.785220,
        "photoUrl": "https://wikiway.com/upload/uf/048/oyamikon_024.jpg"
    },
    {
        "name": "Село Лаврентия",
        "latitude": 65.584903,
        "longitude": -171.011050,
        "photoUrl": "https://postila.ru/data/43/10/61/49/43106149982b1ae05a42800a1690da878d2c1c84326c8c63e1970cdefe5625fe.jpg"
    },
    {
        "name": "Космодром Восточный",
        "latitude": 51.883715,
        "longitude": 128.334033,
        "photoUrl": "https://www.putin-today.ru/wp-content/uploads/2022/11/2-7.webp"
    },
    {
        "name": "Иволгинский дацан Хамбын Хурээ — Бурятия",
        "latitude": 51.758736,
        "longitude": 107.202503,
        "photoUrl": "https://a.d-cd.net/boAAAgKe-OA-1920.jpg"
    },
    {
        "name": "Посольский Спасо-Преображенский монастырь",
        "latitude": 52.017592,
        "longitude": 106.178423,
        "photoUrl": "https://a.d-cd.net/_pzu3na_DGhYNUzJY2PxIkCk15E-1920.jpg"
    },
    {
        "name": "Спасо-Преображенский Кафедральный собор г. Хабаровска",
        "latitude": 48.466135,
        "longitude": 135.067027,
        "photoUrl": "https://avatars.dzeninfra.ru/get-zen_doc/29030/pub_5a09d818a936f4716bf70ba7_5a09dc862f578c5053707adf/scale_1200"
    },
    {
        "name": "Место высадки первой колымской геологической экспедиции",
        "latitude": 59.566178,
        "longitude": 151.248664,
        "photoUrl": "https://must-see.top/wp-content/uploads/2018/11/mesto-vysadki-pervoj-kolymskoj-geologicheskoj-ehkspedicii.jpg"
    },
    {
        "name": "Маяк на мысе Анива",
        "latitude": 46.018889,
        "longitude": 143.414061,
        "photoUrl": "http://crimeangazette.ru/wp-content/uploads/2023/06/1670757016_10.jpg"
    },
    {
        "name": "Городской парк культуры и отдыха имени Гагарина",
        "latitude": 46.96709968493483,
        "longitude": 142.75344565355505,
        "photoUrl": "https://traland.ru/wp-content/uploads/2022/07/gorodskoi-park-kulturi-gagarina.jpg"
    },
    {
        "name": "Китовая аллея — Чукотка",
        "latitude": 64.63425143017652,
        "longitude": -172.5940974131969,
        "photoUrl": "https://trip-guru.ru/photoUrls/easyblog_articles/40/b2ap3_large_trip-guru.ru0030.jpg"
    },
    {
        "name": "Наукан — Чукотка",
        "latitude": 66.02741305834503,
        "longitude": -169.702479513543,
        "photoUrl": "https://avatars.dzeninfra.ru/get-zen_doc/1594475/pub_5d8a4b0f8d5b5f00aff0a4a0_5d8a52b6e882c300afa3efd1/scale_1200"
    },
    {
        "name": "Мыс Наварин — Чукотка",
        "latitude": 62.277677150657425,
        "longitude": 179.0962827367673,
        "photoUrl": "https://chukotka.travel/upload/cape-cape.jpg"
    },
    {
        "name": "Анадырь — Чукотка",
        "latitude": 64.73336042822693,
        "longitude": 177.50562675135268,
        "photoUrl": "https://geelyemgrand.ru/wp-content/uploads/2020/10/3-1.jpg"
    },
    {
        "name": "Фонтан Менора",
        "latitude": 48.792641,
        "longitude": 132.934281,
        "photoUrl": "http://i75.fastpic.org/big/2015/1207/d7/930f44e16acd4fcb646390ef3c6971d7.jpg"
    },
	{
"name": "Смотровая площадка PANORAMA360 в ММДЦ «Москва-Сити»",
"latitude": 55.7499,
"longitude": 37.537237,
"photoUrl": "https://sun9-38.userapi.com/impg/cVbDift2BAxDteGH_2Bpfsp9QOOrUOscGMpW-A/iG9gOCUJMZ0.jpg?size=279x279&quality=95&sign=bcdd277d3ab9334a9aee67c40408dd01&c_uniq_tag=6aeyOioQ4pIYXstj6YOot3iaPFAYP6Cth9my-RNoQIY&type=album"
},
{
"name": "Воробьёвы горы",
"latitude": 55.709382,
"longitude": 37.54225,
"photoUrl": "https://r1.mt.ru/r30/photo4858/20451902245-0/jpg/bp.jpeg"
},
{
"name": "Смотровая площадка «Выше Только Любовь»",
"latitude": 55.74931,
"longitude": 37.534445,
"photoUrl": "https://554a875a-71dc-4f5f-b6bf-ae8967f137d5.selcdn.net/thumbs2/47261830-1796-11eb-9ebb-c20ada0302a9.800x600.jpg"
},
{
"name": "Центральная Смотровая ЦДМ",
"latitude": 55.760094,
"longitude": 37.624905,
"photoUrl": "https://muzeichik.ru/wp-content/uploads/2023/04/shagayu-po-krysham-300x150.jpg"
},
{
"name": "Московская монорельсовая транспортная система",
"latitude": 55.821831,
"longitude": 37.61194,
"photoUrl": "https://strg2.nm.kz/neofiles/serve-image/575fa7b5a3abd6166d0004cb/500x325/c1"
},
{
"name": "Солнце Москвы",
"latitude": 55.826726,
"longitude": 37.626548,
"photoUrl": "https://only-most.ru/wp-content/uploads/2023/03/sa-8-310x165.jpg"
},
{
"name": "Колесо обозрения в парке развлечений «Сказка»",
"latitude": 55.772172,
"longitude": 37.434791,
"photoUrl": "https://posmos.ru/wp-content/uploads/original_5757acd3e1f5e6e2598b4580_594038e17ff703-330x140.jpg"
},
{
"name": "Колесо обозрения в парке «Сокольники»",
"latitude": 55.793959,
"longitude": 37.673886,
"photoUrl": "https://b1.mskagency.ru/c/549731.382xp.jpg"
},
{
"name": "Колесо обозрения у Измайловского Кремля",
"latitude": 55.770178,
"longitude": 37.750795,
"photoUrl": "https://sun9-86.userapi.com/impg/h_Xmh6IPCgh4tnskpfTphcYuPa7aE4VpbSpcAA/WJUFQK1MjkM.jpg?size=604x374&quality=96&sign=3b4336a53df449fa94958ba687855f63&c_uniq_tag=teNRUiF1-Z8jM6cMePaRaT8N727BN2GCUDaao48UzIs&type=album"
},
{
"name": "Парящий мост",
"latitude": 55.749475,
"longitude": 37.629421,
"photoUrl": "https://sportishka.com/uploads/posts/2023-12/thumbs/1701967108_sportishka-com-p-paryashchii-most-nochyu-krasivo-8.jpg"
},
{
"name": "Смотровая площадка гостиницы Украина",
"latitude": 55.751226,
"longitude": 37.565686,
"photoUrl": "https://gigaprod.tabolabs.com/thumb/310/Ukraine1920-1080-2.jpg"
},
{
"name": "Смотровая площадка РАН",
"latitude": 55.712352,
"longitude": 37.578231,
"photoUrl": "https://a-a-ah-ru.s3.amazonaws.com/uploads/items/153595/319814/medium_6551853_xlarge.jpg"
},
{
"name": "Смотровая площадка",
"latitude": 55.667756,
"longitude": 37.671868,
"photoUrl": "http://moscowalk.ru/images/thumbnails/images/2016/progulki/apples_in_Kolomenskoe/apples_in_Kolomenskoe_18-fit-900x561.jpg"
},
{
"name": "Колесо Обозрения в Коломне",
"latitude": 55.085006,
"longitude": 38.779664,
"photoUrl": "https://pilothub.ru/datas/folio/1024_416_crop/4716-koleso-obozreniya.jpg"
},
{
"name": "Блинная Гора",
"latitude": 56.307346,
"longitude": 38.134955,
"photoUrl": "https://druganov.travel/wp-content/uploads/sergiev-posad-smotrovaya.jpg"
},
{
"name": "Смотровая площадка",
"latitude": 55.729114,
"longitude": 36.814617,
"photoUrl": "https://shagau.ru/images/original/2015/05/25/b95988ded84977e46d00f918d5cf5d09.jpg"
},
{
"name": "Смотровая площадка на Мясиной горе с видом на Монастырь",
"latitude": 55.722621,
"longitude": 36.823454,
"photoUrl": "https://avatars.mds.yandex.net/get-altay/3986639/2a0000017a49afa217a8afd219d227617c30/L"
},
{
"name": "Смотровая площадка «Взлетка»",
"latitude": 55.978974,
"longitude": 37.454069,
"photoUrl": "https://a.d-cd.net/643cc8as-480.jpg"
},
{
"name": "Колесо обозрения",
"latitude": 55.894169,
"longitude": 37.459792,
"photoUrl": "http://moscowalk.ru/images/thumbnails/images/2016/parki/PKiO_Tolstoy/PKiO_Tolstoy_11-fit-900x587.jpg"
},
{
"name": "Смотровая площадка",
"latitude": 54.837026,
"longitude": 38.142562,
"photoUrl": "https://avatars.mds.yandex.net/get-altay/1579247/2a0000016cca1b04e4eb2cc637597d1ef598/h220"
},
{
"name": "Смотровая площадка",
"latitude": 55.894859,
"longitude": 37.773021,
"photoUrl": "https://avatars.mds.yandex.net/get-altay/3986135/2a00000178116e6fe37eaab6ca8f9b48e3a2/M_height"
},
{
"name": "Колесо обозрения",
"latitude": 55.825835,
"longitude": 37.329516,
"photoUrl": "https://dynamic-media-cdn.tripadvisor.com/media/photo-o/27/87/78/ae/caption.jpg?w=500&h=400&s=1"
},
{
"name": "Смотровая площадка",
"latitude": 56.037966,
"longitude": 35.957746,
"photoUrl": "https://autotravel.ru/phalbum/91492/172-s.jpg"
},
{
"name": "Смотровая Площадка Серпуховского Кремля",
"latitude": 54.916198,
"longitude": 37.403439,
"photoUrl": "https://media.istockphoto.com/id/1221387732/photo/serpukhov-moscow-view-of-the-serpukhov-kremlin-winter-sunset-ancient-russian-kremlin.jpg?s=612x612&w=0&k=20&c=FAIr84l9V0rSvSdJbuIqGqjZe4XffMbaHxFAZ0_mNHE="
},
    {"name": "Колесо обозрения Очень большое", "latitude": 53.23052682641655, "longitude": 50.19808242858878, "photoUrl": "https://i.ytimg.com/vi/XFhM2qF0W-I/hqdefault.jpg"},
    {"name": "Колесо обозрения Вокруг света", "latitude": 55.815461656463896, "longitude": 49.132394811916576, "photoUrl": "https://cf.bstatic.com/xdata/images/hotel/max200/232056837.jpg?k=34667514ee1295e2228535c28511e2d09f0fbfcf1b369436aa21a9aa4d3fd4b8&o=&hp=1"},
    {"name": "Колесо обозрения НиНо", "latitude": 56.32414999756274, "longitude": 44.03585564133977, "photoUrl": "https://i.otzovik.com/objects/b/1970000/1967793.png"},
    {"name": "Висячий мост", "latitude": 54.71192834078426, "longitude": 55.95434360517114, "photoUrl": "https://i5.photo.2gis.com/images/geo/17/2392537346646629_7a8b_328x170.jpg"},
    {"name": "Водонапорная башня", "latitude": 54.722108, "longitude": 55.918878, "photoUrl": "https://sun9-11.userapi.com/impg/7QnYZ4pNfflrxrva3Y_H2YR8qeEES_pohdhZ3Q/VVnRR6r8o5M.jpg?size=604x341&quality=96&sign=f4662bb35b395d223ebbbae035f045f3&type=album"},
    {"name": "Башня смерти", "latitude": 57.994908, "longitude": 56.25394, "photoUrl": "https://www.avtodispetcher.ru/_upload/wp-content/gallery/perm-buildings/thumbs/thumbs_death-tower1.jpg"},
    {"name": "Пермская телебашня", "latitude": 58.005672, "longitude": 56.291185, "photoUrl": "https://sun9-57.userapi.com/impg/_8YHlXSCydDs4PtcKX4GiwOLtuCc-1jJPD-NMA/GSZv7P7Bfus.jpg?size=604x403&quality=96&sign=d1b34ba6ce15c535278f83b0d477b012&type=album"},
    {"name": "Водонапорная башня 1915 года", "latitude": 56.850934, "longitude": 53.207708, "photoUrl": "https://www.vladmuz.ru/travel_photos/izhevsk/67_sm.jpg"},
    {"name": "Башня Ульяновск", "latitude": 54.31421523455141, "longitude": 48.501870608675546, "photoUrl": "https://sun9-35.userapi.com/impf/2yIPfig9NbU4VTu1wFdXtnT3uCy8P-GY6Qysgw/imnwiLn5PS8.jpg?size=500x375&quality=96&sign=2f8d1596877cc0a0bdbd070700b32bfd&c_uniq_tag=WrqpBypuk5_NquVI7Wo5hTuhTKz8LcqQFnVJR8ELxHs&type=album"},
    {"name": "Бывшая водонапорная башня", "latitude": 51.77502, "longitude": 55.107466, "photoUrl": "https://ecdn5.wn.com/pd/da/47/d08aa8bf12b3e453ef95f189909d_grande.jpg"},
    {"name": "Оборонительный вал", "latitude": 53.1826740251631, "longitude": 45.01523053110502, "photoUrl": "https://sun9-67.userapi.com/impg/zn-P9sPIo2sklTLQSBagQLqLaiPTVFLIVrI-aA/scWLi5xBQ2E.jpg?size=604x403&quality=96&sign=418671a8cf256156412237b70830bbb6&c_uniq_tag=kEsIT4YVkNMClqoaAI8T_GiFfrZxxmML_Jy8TvbpOyI&type=album"},
    {"name": "Шупашкар", "latitude": 56.14849686323186, "longitude": 47.25917475335799, "photoUrl": "https://avatars.mds.yandex.net/get-altay/5482460/2a0000017eb1c74b2082931c9efc8f0bf18f/M"},
    {"name": "Колесо обозрения", "latitude": 56.817183, "longitude": 60.538536, "photoUrl": "http://malls.ragazza.ru/images/thumbs/id30_w652_h327.jpg"},
    {"name": "Колесо Обозрения", "latitude": 56.864772, "longitude": 60.545776, "photoUrl": "https://vedomostiural.ru/uploadedFiles/newsimages/icons/150x115/izobrazhenie_2022-10-31_134921108.png"},
    {"name": "Башня Исеть", "latitude": 56.843526, "longitude": 60.590539, "photoUrl": "https://omsk.ups-delta.ru/uploads/thumb/review_405_299x173.jpg"},
    {"name": "Смотровая площадка", "latitude": 56.836106, "longitude": 60.61465, "photoUrl": "https://sun9-38.userapi.com/impf/c626630/v626630892/a3f2/WbedWXK_ia4.jpg?size=480x320&quality=96&sign=21545bc1331ffe157004fe53f410ae32&type=album"},
    {"name": "Колесо Обозрения Горки", "latitude": 55.163513, "longitude": 61.430931, "photoUrl": "https://static.gorpom.ru/images/common/journal/logos/4c7ab16d590c5a3c79fb3d9d542d4257.jpg"},
    {"name": "Колесо обозрения 360", "latitude": 55.169961, "longitude": 61.3911, "photoUrl": "https://sun9-64.userapi.com/impg/HoY3J5qxUtjZv198dsEzUt10r-tZj9G3Lr1Z-w/Heb4pfAMUUs.jpg?size=200x133&quality=96&sign=ff5a15c34327b9bca8468985078fe4c6&type=album"},
    {"name": "Челябинская Телебашня", "latitude": 55.152835, "longitude": 61.405302, "photoUrl": "https://chelyabinsk.bezformata.com/content/image580851320.jpg"},
    {"name": "Колесо Обозрения", "latitude": 57.152985, "longitude": 65.541227, "photoUrl": "https://vedomostiural.ru/uploadedFiles/newsimages/icons/150x115/izobrazhenie_2022-10-31_134921108.png"},
    {"name": "Водонапорная Башня", "latitude": 57.150563, "longitude": 65.542835, "photoUrl": "https://petersit.ru/wp-content/uploads/2022/04/9-istoricheskih-faktov-o-vodonapornoj-bashne-mimo-kotoroj-my-hodim-kazhdyj-den-a184964-300x213.jpg"},
    {"name": "Город веселых коротышек", "latitude": 53.398369, "longitude": 58.989625, "photoUrl": "https://i.ytimg.com/vi/HNECzk1spQI/default.jpg"},
    {"name": "Колесо Обозрения", "latitude": 53.41362, "longitude": 58.972692, "photoUrl": "https://vedomostiural.ru/uploadedFiles/newsimages/icons/150x115/izobrazhenie_2022-10-31_134921108.png"},
    {"name": "Колесо Обозрения", "latitude": 61.259802, "longitude": 73.356076, "photoUrl": "https://vedomostiural.ru/uploadedFiles/newsimages/icons/150x115/izobrazhenie_2022-10-31_134921108.png"},
    {"name": "Колесо Обозрения", "latitude": 55.430845, "longitude": 65.326952, "photoUrl": "https://vedomostiural.ru/uploadedFiles/newsimages/icons/150x115/izobrazhenie_2022-10-31_134921108.png"},
    {"name": "Колесо Обозрения", "latitude": 55.430845, "longitude": 65.326952, "photoUrl": "https://vedomostiural.ru/uploadedFiles/newsimages/icons/150x115/izobrazhenie_2022-10-31_134921108.png"},
	    {
        "name": "Столбы выветривания",
        "latitude": 62.221329,
        "longitude": 59.305196,
        "photoUrl": "http://respublika11.ru/wp-content/uploads/2020/08/stolby-vyvetrivaniya-1-260x146.jpg"
    },
    {
        "name": "Гора Народная",
        "latitude": 65.0349,
        "longitude": 60.115,
        "photoUrl": "https://priroda.club/uploads/posts/2021-12/thumbs/1638998890_15-priroda-club-p-manaraga-gora-priroda-krasivo-foto-20.jpg"
    },
    {
        "name": "Гора Манарага",
        "latitude": 65.039679,
        "longitude": 59.76726,
        "photoUrl": "https://komionline.ru/uploads/2018/09/CF000816-720x480.jpg"
    },
    {
        "name": "Водопад Буредан",
        "latitude": 68.728056,
        "longitude": 65.352222,
        "photoUrl": "https://hotel-vulkan.ru/wp-content/uploads/12-vodopad-na-reke-halmer-yu.jpg"
    },
    {
        "name": "Гора Еркусей (Шаман-Гора)",
        "latitude": 65.221364,
        "longitude": 60.348099,
        "photoUrl": "https://img-fotki.yandex.ru/get/52765/95457022.d/0_14e9ae_a9580e6a_orig.jpg"
    },
    {
        "name": "Урочище Медвежья Пещера",
        "latitude": 62,
        "longitude": 58.733,
        "photoUrl": "https://2spalnika.ru/wp-content/uploads/2022/12/medved-scaled-1-400x300.jpg"
    },
    {
        "name": "Река Печора",
        "latitude": 67.683622,
        "longitude": 52.490428,
        "photoUrl": "https://pibig.info/thumb.php?src=https://pibig.info/uploads/posts/2023-09/thumbs/1695986343_pibig-info-p-reka-pechora-nenetskii-avtonomnii-okrug-pi-1.jpg&w=320"
    },
    {
        "name": "Река Пеша",
        "latitude": 66.793508,
        "longitude": 47.726111,
        "photoUrl": "https://catcher.fish/wp-content/uploads/2017/05/pesha3-500x375.jpg"
    },
    {
        "name": "Река Ома",
        "latitude": 66.686917,
        "longitude": 46.374264,
        "photoUrl": "http://nicfish.ru/yarportal/images/Река-Ома-фото.jpg"
    },
    {
        "name": "Река Индига",
        "latitude": 67.459386,
        "longitude": 49.378361,
        "photoUrl": "https://pic.xenomorph.ru/2012-05/thumbs/1337625417_13.jpg"
    },
    {
        "name": "Чёшская губа",
        "latitude": 67.330048,
        "longitude": 46.500698,
        "photoUrl": "https://upload.wikimedia.org/wikipedia/commons/thumb/5/56/Cheshskaya_guba.jpg/320px-Cheshskaya_guba.jpg"
    },
    {
        "name": "Печорская губа",
        "latitude": 68.661447,
        "longitude": 54.997287,
        "photoUrl": "https://sun9-68.userapi.com/impg/1xug-tOfOpcmPo5qDdO7nHANinOqln_vRIPNAA/XXmaxKPhbNE.jpg?size=604x340&quality=96&sign=67d44fda276195e61b09df50e0b50912&type=album"
    },
    {
        "name": "Поморский пролив",
        "latitude": 68.604739,
        "longitude": 50.284267,
        "photoUrl": "https://a.d-cd.net/FgAAAgK_MOA-480.jpg"
    },
	    {
        "name": "Остров Колгуев",
        "latitude": 69.107757,
        "longitude": 49.119853,
        "photoUrl": "https://www.zrnao.ru/assets/components/phpthumbof/cache/%D0%91%D1%83%D0%B3%D1%80%D0%B8%D0%BD%D0%BE-300709.e8f302044b95dae287b25e426bb1a65e1.jpg"
    },
    {
        "name": "Озеро Голодная Губа",
        "latitude": 67.863923,
        "longitude": 52.721486,
        "photoUrl": "https://prorybu.ru/wp-content/uploads/2020/09/%D0%9E%D0%B7%D0%B5%D1%80%D0%BE-%D0%93%D0%BE%D0%BB%D0%BE%D0%B4%D0%BD%D0%B0%D1%8F-%D0%93%D1%83%D0%B1%D0%B0-%D1%84%D0%BE%D1%82%D0%BE.jpg"
    },
    {
        "name": "Озеро Урдюжское",
        "latitude": 67.238474,
        "longitude": 50.180269,
        "photoUrl": "http://img.fotoblog.ninja/268/874/900.jpg"
    },
    {
        "name": "Сульские водопады",
        "latitude": 66.895059,
        "longitude": 49.538057,
        "photoUrl": "https://cdn.culture.ru/images/04a4c217-1573-5744-9553-06207b4fa062/c_fill,g_center,w_400,h_292/e275e09fa812646233544665afac7117.jpg"
    },
    {
        "name": "Остров Вайгач",
        "latitude": 70.016667,
        "longitude": 59.55,
        "photoUrl": "https://storage.yandexcloud.net/storage.yasno.media/nat-geo/images/2019/5/16/87d52f36aef745f2a7014f33c76e012e.2e16d0ba.fill-340x300.jpg"
    },
    {
        "name": "Каньон «Большие ворота»",
        "latitude": 67.314353,
        "longitude": 49.314534,
        "photoUrl": "https://vsegda-pomnim.com/uploads/posts/2022-03/thumbs/1647082765_11-vsegda-pomnim-com-p-reka-indiga-foto-12.jpg"
    },
    {
        "name": "Памятник комару нефтянику",
        "latitude": 65.987386,
        "longitude": 57.563046,
        "photoUrl": "https://s00.yaplakal.com/pics/pics_preview/9/0/3/11512309.jpg"
    },
    {
        "name": "Смотровая площадка в морпорту (Нарьян-Мар)",
        "latitude": 67.64667,
        "longitude": 52.99417,
        "photoUrl": "https://sun9-64.userapi.com/impf/c850436/v850436868/16950e/SKOD9p4UkZA.jpg?size=807x538&quality=96&sign=d874c8a6e6bf1fb5a7b2cf306c642289&c_uniq_tag=6qLUgDDWL446wVo0mzh-6ZjjYqvCEOv7s5Iqb2sApAw&type=album"
    },
    {
        "name": "Озеро Хутыто",
        "latitude": 68.01827,
        "longitude": 59.664273,
        "photoUrl": "https://i.ytimg.com/vi/kzg896QG2uw/mqdefault.jpg"
    },
    {
        "name": "Озеро Сейзасрёто",
        "latitude": 68.695883,
        "longitude": 60.850163,
        "photoUrl": "https://www.sakhaparliament.ru/images/DSC_1071.JPG"
    },
    {
        "name": "Озеро Большое Камбальничье",
        "latitude": 68.6257,
        "longitude": 52.6056,
        "photoUrl": "https://i.ytimg.com/vi/Uez2NBidwQ8/hqdefault.jpg"
    },
    {
        "name": "Озеро Ошкото",
        "latitude": 67.746175,
        "longitude": 57.229256,
        "photoUrl": "https://vsegda-pomnim.com/uploads/posts/2022-03/thumbs/1647305899_47-vsegda-pomnim-com-p-ozero-drevichnoe-foto-50.jpg"
    },
    {
        "name": "Кий-остров",
        "latitude": 64.0022,
        "longitude": 37.8783,
        "photoUrl": "https://sun9-48.userapi.com/impg/l45AGyY2C8s58p6ynF3lf6AWlypCv_AvziRGXg/_0oljWF7QNk.jpg?size=130x98&quality=96&sign=2f1843d028c582ee156f545dce47262e&c_uniq_tag=8waltpd_l4-mi8yzfs90piccKPqUoAZ364MQZA1nRdc&type=album"
    },
    {
        "name": "Обсерватория им. Эрнста Кренкеля",
        "latitude": 80.452222,
        "longitude": 58.051758,
        "photoUrl": "https://upload.wikimedia.org/wikipedia/commons/thumb/e/e5/SH101697.JPG/240px-SH101697.JPG"
    },
    {
        "name": "р. Северная Двина",
        "latitude": 62.730779,
        "longitude": 43.258597,
        "photoUrl": "https://triiips.com/storage/app/media/category/sight/98/68/37/2533_8d1d86a368701f78_md.jpg"
    },
    {
        "name": "Мыс Пур-Наволок",
        "latitude": 64.475624,
        "longitude": 40.50718,
        "photoUrl": "https://лесобаза.рф/upload/cpub/pre/56477/2513920f73e5a792a1cf60aa7c438bff_56477.jpg"
    },
    {
        "name": "Белое море",
        "latitude": 66.1119,
        "longitude": 38.2338,
        "photoUrl": "https://i.ytimg.com/vi/vB8oBu5xEKo/mqdefault.jpg"
    },
    {
        "name": "р. Пинега",
        "latitude": 59.821,
        "longitude": 33.506,
        "photoUrl": "https://triptodream.ru/wp-content/uploads/2022/07/arhangelsk-300x160.jpeg"
    },
    {
        "name": "Водопад Падун",
        "latitude": 63.882736,
        "longitude": 34.31045,
        "photoUrl": "https://vsegda-pomnim.com/uploads/posts/2022-05/thumbs/1651440532_2-vsegda-pomnim-com-p-vodopad-padun-vitegorskii-raion-foto-2.jpg"
    },
    {
        "name": "Урочище Опоки",
        "latitude": 56.906,
        "longitude": 30.816,
        "photoUrl": "https://ustugtur.ru/wp-content/uploads/2022/04/suhona-01-460x307.jpg"
    },
    {
        "name": "Село Сизьма",
        "latitude": 59.4142,
        "longitude": 38.7083,
        "photoUrl": "https://13.img.avito.st/image/1/PERXTLa_kK0h6WKrI3QYX6DvlqfpL5Rf5e-Sq-_pkq3jqQ"
    },
    {
        "name": "Село Горицы",
        "latitude": 59.8711194,
        "longitude": 38.2588892,
        "photoUrl": "https://img01.domclick.ru/c326x235q80/vitrina/owner/31/86/3186eef196414141a62d101442c8b72b.jpg"
    },
    {
        "name": "Кольский залив",
        "latitude": 69.135,
        "longitude": 33.466,
        "photoUrl": "https://smartnews.ru/storage/c/2014/05/31/1401529706_005560_59.jpg"
    },
    {
        "name": "Село Териберка",
        "latitude": 69.16417,
        "longitude": 35.14056,
        "photoUrl": "https://inkarelia.ru/wp-content/uploads/2022/10/Teriberka_5.jpg"
    },
    {
        "name": "Хибины (горы)",
        "latitude": 67.730312,
        "longitude": 33.710057,
        "photoUrl": "https://i.ytimg.com/vi/Kj18PNpuDps/mqdefault.jpg"
    },
    {
        "name": "Юдычвумчорр",
        "latitude": 67.734722,
        "longitude": 33.726111,
        "photoUrl": "http://kolanews.ru/site-specific/iskkra/upload/%D0%BB%D0%B5%D1%82%D0%BE-2018/32875-article-prev-preview.jpg?0=1"
    },
    {
        "name": "Мемориал «Алёша»",
        "latitude": 68.993056,
        "longitude": 33.071667,
        "photoUrl": "https://caleche.org/img/guru-2021/4499/image_fj2Ge0enEEAWqqi4f1sAiF7.jpg"
    },
    {
        "name": "Сейдозеро",
        "latitude": 67.814984,
        "longitude": 34.848857,
        "photoUrl": "https://img7-fotki.yandex.net/get/52656/136317040.175/0_STATIC18b5e7_bea96f78_M"
    },
    {
        "name": "Оз. Ловно",
        "latitude": 66.840297,
        "longitude": 35.172729,
        "photoUrl": "https://www.marshruty.ru/Data/Photos/b/e/3/1/be31690f022e4413b4b1df8d1dd18fa3/large/DSCN0237.JPG"
    },
	 {
      "name": "Водопад Кивач",
      "latitude": 62.268000,
      "longitude": 33.980384,
      "photoUrl": "https://media.kupo.la/thumbor/unsafe/preset/orig/images/2020/9/11/1599831601-i%5B3%5D.jpg"
    },
    {
      "name": "Вулкан Гирвас",
      "latitude": 62.484776,
      "longitude": 33.670096,
      "photoUrl": "https://billionnews.ru/uploads/posts/2022-08/1660237844_1660237841.jpg"
    },
    {
      "name": "Гора Воттоваара",
      "latitude": 63.074251,
      "longitude": 32.623114,
      "photoUrl": "https://webcamerymira.ru/upload/000/u1/b/6/gora-vottovaara-v-karelii-foto-normal.jpg"
    },
    {
      "name": "Ладожское озеро",
      "latitude": 60.785,
      "longitude": 31.715,
      "photoUrl": "https://static.tildacdn.com/tild3563-3362-4233-a666-616136656665/-/resize/504x/_.jpg"
    },
    {
      "name": "Остров Валаам",
      "latitude": 61.3899,
      "longitude": 30.9471,
      "photoUrl": "https://svetloe10.ru/images/places/10/15_640x480.png"
    },
    {
      "name": "Водопад «Белые мосты»",
      "latitude": 61.7551484,
      "longitude": 31.4160496,
      "photoUrl": "https://vse.sale/images/content/pub/media/2016/july/belmost.jpg?w=144&fit=crop&s=1ff264d8e6ffb8eae21e63861f0d0aa0"
    },
    {
      "name": "Беломорские петроглифы",
      "latitude": 64.52247560835693,
      "longitude": 34.76414969865403,
      "photoUrl": "https://smartwalks.spb.ru/wp-content/uploads/2023/04/petroglify.jpg"
    },
    {
      "name": "Гора Нуорунен",
      "latitude": 66.144722,
      "longitude": 30.244722,
      "photoUrl": "https://sun9-52.userapi.com/impf/c850120/v850120245/17d294/syiIIM1zPP0.jpg?size=320x213&quality=96&sign=5a5ac7f5256cf3799915a314cc950f23&c_uniq_tag=KZQVL4MpBx1V_59leS19rFr49ZJwXfZromxZzbRAIZk&type=album"
    },
    {
      "name": "Лахденпохья",
      "latitude": 61.522222,
      "longitude": 30.1925,
      "photoUrl": "https://sun9-49.userapi.com/impf/c638124/v638124112/2834e/1rMz9qgByyM.jpg?size=604x403&quality=96&sign=0c827684c7958d886f550400aefaf8d2&c_uniq_tag=aNXiMQHhdCOnbpL3ImZLlP8gW3oarigetqKn-y2fXlA&type=album"
    },
    {
      "name": "Деревня Кинерма",
      "latitude": 61.527222,
      "longitude": 32.828889,
      "photoUrl": "https://i.pinimg.com/236x/cc/c6/a8/ccc6a8152d82a37d9e5a90ddf5dd3915.jpg?nii=t"
    },
    {
      "name": "Деревня Пегрема",
      "latitude": 62.3265,
      "longitude": 34.766,
      "photoUrl": "https://travel-for-life.ru/wp-content/uploads/2020/05/pegrema1-2.jpg"
    },
    {
      "name": "Гора Сампо",
      "latitude": 62.039219,
      "longitude": 34.096913,
      "photoUrl": "https://sun9-61.userapi.com/impf/c621620/v621620000/31ced/cM2Cg6RlShc.jpg?size=936x624&quality=96&sign=f149bdb0a3bb8c1762f3eb63dd7498e1&c_uniq_tag=U9FjDMJcZfvOHAKOMvAE3ZN2qh8VNbudivVdN8hMRmk&type=album"
    },
    {
      "name": "Гора Филина",
      "latitude": 61.548857,
      "longitude": 30.199141,
      "photoUrl": "https://start.sampo.ru/news_images/20200728/1fae54450a736905ade3fbd593e511a5.jpg"
    },
    {
      "name": "Марциальные воды",
      "latitude": 62.156608,
      "longitude": 33.901688,
      "photoUrl": "https://dosros.ru/upload/iblock/d99/j9ufpwrvhpladgx3xs84q3j9zghlz5ya.png"
    },
    {
      "name": "Залив Ляппяярви",
      "latitude": 61.695470,
      "longitude": 30.696523,
      "photoUrl": "https://stolicaonego.ru/images/news/449/449554/main_270x175.png"
    },
    {
      "name": "Шардонский архипелаг",
      "latitude": 61.942343,
      "longitude": 34.737697,
      "photoUrl": "https://i.pinimg.com/236x/9c/3e/fa/9c3efa0f0fcc840f9ee1bf90c256cc13.jpg"
    },
    {
      "name": "Озеро Урозеро",
      "latitude": 59.866879,
      "longitude": 37.383157,
      "photoUrl": "http://www.mntores.inlife.ru/photo/karel045.jpg"
    },
    {
      "name": "Ильинский Водлозерский погост",
      "latitude": 62.380093,
      "longitude": 36.9078,
      "photoUrl": "https://sun9-71.userapi.com/impg/qvAf3CnIASs755ZdXWfovlr_UgRz0A0jQadksQ/S5Xr5glUtxA.jpg?size=480x294&quality=95&sign=1e58dfa67d538322282eb5e6cdfa397d&type=album"
    },
    {
      "name": "Водопад «Воицкий Падун»",
      "latitude": 62.268000,
      "longitude": 33.980384,
      "photoUrl": "https://vsegda-pomnim.com/uploads/posts/2022-03/thumbs/1647013163_51-vsegda-pomnim-com-p-reka-segezha-foto-55.jpg"
    },
    {
      "name": "Водопад Куми-порог",
      "latitude": 65.276142,
      "longitude": 30.198763,
      "photoUrl": "https://masput.ru/public_images/9d299afb0c5c9230ebb520ffb9341ae0_mr_s420x280_v1.jpg"
    },
    {
      "name": "Рускеальские водопады",
      "latitude": 61.915509,
      "longitude": 30.626539,
      "photoUrl": "https://vsegda-pomnim.com/uploads/posts/2022-05/thumbs/1651456263_28-vsegda-pomnim-com-p-vodopadi-akhvenkoski-kareliya-foto-28.jpg"
    },
    {
      "name": "Озеро Янисъярви",
      "latitude": 61.966667,
      "longitude": 30.916667,
      "photoUrl": "https://vasilev-life.ru/wp-content/uploads/Янисъярви-800x500.jpg"
    },
    {
      "name": "Водопад Киваккакоски",
      "latitude": 62.268000,
      "longitude": 33.980384,
      "photoUrl": "https://media.kupo.la/thumbor/unsafe/preset/orig/images/2022/7/12/2505efd9-72c6-4486-8fa8-7ffbb60c3827.png"
    },
    {
      "name": "Радоновые озёра",
      "latitude": 59.734545,
      "longitude": 29.401247,
      "photoUrl": "https://tur-ray.ru/wp-content/uploads/2020/05/radonovye-ozera.jpg"
    },
    {
      "name": "Федоровский городок",
      "latitude": 59.725456,
      "longitude": 30.394112,
      "photoUrl": "https://kanoner.com/pics/2017/09/pushkyn-fedorovskyj-horodok-trapeznaja-palata-400x200.jpg"
    },
    {
      "name": "Остров Коневец",
      "latitude": 60.860160,
      "longitude": 30.610129,
      "photoUrl": "https://i.ytimg.com/vi/vUm5YqhmLjE/mqdefault.jpg"
    },
    {
      "name": "Липовское озеро",
      "latitude": 59.744134,
      "longitude": 28.152419,
      "photoUrl": "https://www.plantarium.ru/dat/places/6/641/12641.jpg?985a2027"
    },
    {
      "name": "Тосненский водопад",
      "latitude": 59.644625,
      "longitude": 30.808623,
      "photoUrl": "https://st.twitreactor.com/upload/images/2023/07/XddbyRgfMzT5HeGNngoV_19_ffeadf6c07f3321ea8bb771124451fde_image_300x300.jpg"
    },
    {
      "name": "Лосевские Пороги",
      "latitude": 60.680176,
      "longitude": 29.998775,
      "photoUrl": "https://sun9-11.userapi.com/impf/c604628/v604628214/290f3/nfj7VKaNMto.jpg?size=320x240&quality=96&sign=06b808d48927643f78aaa28b0883d34c&c_uniq_tag=HUgr4hjeAh6NbcmTS0Kd_5HG-yf7l6ocRg7tO_l31oU&type=album"
    },
    {
      "name": "Водопад на реке Караста",
      "latitude": 59.91490300,
      "longitude": 29.75395600,
      "photoUrl": "https://content-17.foto.my.mail.ru/community/piter/_groupsphoto/h-185979.jpg"
    },
    {
      "name": "«Скала любви»",
      "latitude": 61.0638,
      "longitude": 28.8705,
      "photoUrl": "https://sun9-78.userapi.com/impg/tQS9RIa71vV2Nx7PT4ZY132B06ewqAsWvicFSw/WMsAZYPOjOc.jpg?size=807x538&quality=96&sign=316ceee698220626821a7dba18e387a9&c_uniq_tag=QX0SRFi01-dqg2DvxcviHqtBF9xicZKZnuG3haqLGEw&type=album"
    },
    {
      "name": "Староладожская пещера и Святой источник",
      "latitude": 59.542303,
      "longitude": 28.747203,
      "photoUrl": "https://tropki.ru/sites/default/files/styles/preview/public/previews/1954/staroladozhskaya-peshchera.jpg"
    },
    {
      "name": "Горчаковщинский водопад",
      "latitude": 60.019167,
      "longitude": 32.330792,
      "photoUrl": "https://img.youtube.com/vi/aQkmRIh6ehc/0.jpg"
    },
    {
      "name": "Большие скалы",
      "latitude": 61.166667,
      "longitude": 29.7,
      "photoUrl": "https://sun9-12.userapi.com/impf/mn27-n--YXBibiw8HxCdCR9UW6E0xJv-FjaWPg/XWXDtPxBHNg.jpg?size=320x240&quality=96&sign=7af8a6769d900c1fd1312127a66f34d1&c_uniq_tag=MU_S3iaABRGw7EiseFj4Y6He-pPwbO4gPfD4K_vRybQ&type=album"
    },
    {
      "name": "Ястребиное озеро",
      "latitude": 61.141847,
      "longitude": 29.698131,
      "photoUrl": "https://sun9-71.userapi.com/impg/mC9B9bL6X3vwvaNmzxauvlwuK9pamkkUoFFqAg/SVvlRUoyFDs.jpg?size=604x403&quality=95&sign=963af17937a511782c0686638dfd9017&c_uniq_tag=DrrhjZPdjyrd-1Ayj31HgZ6Pa36v7n5uArL8HWe2fGI&type=album"
    },
    {
      "name": "Остров Маячный",
      "latitude": 60.572191,
      "longitude": 28.425085,
      "photoUrl": "https://sun1-84.userapi.com/impf/mK4MaHybatMv-OcjfuZhhb60e89niENU2MSJkg/GnwY_rasDpQ.jpg?size=800x600&quality=96&sign=fbc55af3ca274ba7b104f78b4bd4e5ed&c_uniq_tag=GqnxV4KkqsnZu3xluGk9N49Lx9W6AbnSS6JZ0GXcAzs&type=album"
    },
    {
      "name": "Деревня Верхние Мандроги",
      "latitude": 60.89842,
      "longitude": 33.81942,
      "photoUrl": "https://i.pinimg.com/474x/7d/ed/d5/7dedd54a455c091ae98f1dcda23bfc82--rubrics.jpg"
    },
	 {
      "name": "Радоновые озёра",
      "latitude": 59.734545,
      "longitude": 29.401247,
      "photoUrl": "https://tur-ray.ru/wp-content/uploads/2020/05/radonovye-ozera.jpg"
    },
    {
      "name": "Федоровский городок",
      "latitude": 59.725456,
      "longitude": 30.394112,
      "photoUrl": "https://kanoner.com/pics/2017/09/pushkyn-fedorovskyj-horodok-trapeznaja-palata-400x200.jpg"
    },
    {
      "name": "Остров Коневец",
      "latitude": 60.860160,
      "longitude": 30.610129,
      "photoUrl": "https://i.ytimg.com/vi/vUm5YqhmLjE/mqdefault.jpg"
    },
    {
      "name": "Липовское озеро",
      "latitude": 59.744134,
      "longitude": 28.152419,
      "photoUrl": "https://www.plantarium.ru/dat/places/6/641/12641.jpg?985a2027"
    },
    {
      "name": "Тосненский водопад",
      "latitude": 59.644625,
      "longitude": 30.808623,
      "photoUrl": "https://st.twitreactor.com/upload/images/2023/07/XddbyRgfMzT5HeGNngoV_19_ffeadf6c07f3321ea8bb771124451fde_image_300x300.jpg"
    },
    {
      "name": "Лосевские Пороги",
      "latitude": 60.680176,
      "longitude": 29.998775,
      "photoUrl": "https://sun9-11.userapi.com/impf/c604628/v604628214/290f3/nfj7VKaNMto.jpg?size=320x240&quality=96&sign=06b808d48927643f78aaa28b0883d34c&c_uniq_tag=HUgr4hjeAh6NbcmTS0Kd_5HG-yf7l6ocRg7tO_l31oU&type=album"
    },
    {
      "name": "Водопад на реке Караста",
      "latitude": 59.91490300,
      "longitude": 29.75395600,
      "photoUrl": "https://content-17.foto.my.mail.ru/community/piter/_groupsphoto/h-185979.jpg"
    },
    {
      "name": "«Скала любви»",
      "latitude": 61.0638,
      "longitude": 28.8705,
      "photoUrl": "https://sun9-78.userapi.com/impg/tQS9RIa71vV2Nx7PT4ZY132B06ewqAsWvicFSw/WMsAZYPOjOc.jpg?size=807x538&quality=96&sign=316ceee698220626821a7dba18e387a9&c_uniq_tag=QX0SRFi01-dqg2DvxcviHqtBF9xicZKZnuG3haqLGEw&type=album"
    },
    {
      "name": "Староладожская пещера и Святой источник",
      "latitude": 59.542303,
      "longitude": 28.747203,
      "photoUrl": "https://tropki.ru/sites/default/files/styles/preview/public/previews/1954/staroladozhskaya-peshchera.jpg"
    },
    {
      "name": "Горчаковщинский водопад",
      "latitude": 60.019167,
      "longitude": 32.330792,
      "photoUrl": "https://img.youtube.com/vi/aQkmRIh6ehc/0.jpg"
    },
    {
      "name": "Большие скалы",
      "latitude": 61.166667,
      "longitude": 29.7,
      "photoUrl": "https://sun9-12.userapi.com/impf/mn27-n--YXBibiw8HxCdCR9UW6E0xJv-FjaWPg/XWXDtPxBHNg.jpg?size=320x240&quality=96&sign=7af8a6769d900c1fd1312127a66f34d1&c_uniq_tag=MU_S3iaABRGw7EiseFj4Y6He-pPwbO4gPfD4K_vRybQ&type=album"
    },
    {
      "name": "Ястребиное озеро",
      "latitude": 61.141847,
      "longitude": 29.698131,
      "photoUrl": "https://sun9-71.userapi.com/impg/mC9B9bL6X3vwvaNmzxauvlwuK9pamkkUoFFqAg/SVvlRUoyFDs.jpg?size=604x403&quality=95&sign=963af17937a511782c0686638dfd9017&c_uniq_tag=DrrhjZPdjyrd-1Ayj31HgZ6Pa36v7n5uArL8HWe2fGI&type=album"
    },
    {
      "name": "Остров Маячный",
      "latitude": 60.572191,
      "longitude": 28.425085,
      "photoUrl": "https://sun1-84.userapi.com/impf/mK4MaHybatMv-OcjfuZhhb60e89niENU2MSJkg/GnwY_rasDpQ.jpg?size=800x600&quality=96&sign=fbc55af3ca274ba7b104f78b4bd4e5ed&c_uniq_tag=GqnxV4KkqsnZu3xluGk9N49Lx9W6AbnSS6JZ0GXcAzs&type=album"
    },
    {
      "name": "Деревня Верхние Мандроги",
      "latitude": 60.89842,
      "longitude": 33.81942,
      "photoUrl": "https://i.pinimg.com/474x/7d/ed/d5/7dedd54a455c091ae98f1dcda23bfc82--rubrics.jpg"
    },
	  {
    "name": "Мосты",
    "latitude": 59.942222,
    "longitude": 30.338611,
    "photoUrl": "https://me-se.careerist.ru/media/logo/71/14041/7020155_rs_248x154.jpg"
  },
  {
    "name": "Остров «Новая Голландия»",
    "latitude": 59.9292549,
    "longitude": 30.2898002,
    "photoUrl": "https://i.ytimg.com/vi/-lYOq2FY9vs/hqdefault.jpg"
  },
  {
    "name": "Кронштадт",
    "latitude": 59.99541,
    "longitude": 29.76668,
    "photoUrl": "https://fb10.ru/wp-content/uploads/2021/05/kronshtadt-1024x576.jpg"
  },
  {
    "name": "Озеро Селигер",
    "latitude": 57.239082,
    "longitude": 33.034332,
    "photoUrl": "https://roliki-magazin.ru/wp-content/uploads/c/3/5/c35c00d033447a9c231d86e648808e15.png"
  },
  {
    "name": "Озеро Ильмень",
    "latitude": 58.2667,
    "longitude": 31.2833,
    "photoUrl": "https://avatars.dzeninfra.ru/get-zen_doc/164147/pub_5b6815db6d03f800a9205693_5b68161e15e67900a87da177/scale_1200"
  },
  {
    "name": "Боровичи",
    "latitude": 58.3878,
    "longitude": 33.9155,
    "photoUrl": "https://peshkompopiteru.ru/wp-content/uploads/2022/08/7d02c9c07f2dd3c916b85215595fabfe-218x150.jpg"
  },
  {
    "name": "Река Понеретка",
    "latitude": 58.28315,
    "longitude": 34.039541,
    "photoUrl": "https://valday.com/img/poneretka10003.jpg"
  },
  {
    "name": "Водопад «Голубая лагуна»",
    "latitude": 57.119576,
    "longitude": 31.167201,
    "photoUrl": "https://ezdy.ru/assets/cache_image/images/vodopad-golubaja-laguna-novgorodskaja-oblast/vodopad-golubaja-laguna-novgorodskaja-oblast01_384x256_e0a.jpg"
  },
  {
    "name": "Карамельный водопад",
    "latitude": 58.464633,
    "longitude": 30.970706,
    "photoUrl": "https://i.novgorod.ru/news/images/64/83/968364/slider_968364.jpg"
  },
  {
    "name": "Чудское озеро",
    "latitude": 58.688003,
    "longitude": 27.443691,
    "photoUrl": "https://gfhome.ru/sites/default/files/styles/content_gallery/public/03_14.jpg?itok=pCCgQTjy"
  },
  {
    "name": "Куршская коса",
    "latitude": 54.9757564,
    "longitude": 20.520279,
    "photoUrl": "https://cdn.tripster.ru/thumbs2/e752763c-5800-11eb-aca6-decddabf184d.800x600.jpg"
  },
  {
    "name": "Река Неман",
    "latitude": 55.083931,
    "longitude": 21.901881,
    "photoUrl": "https://s00.yaplakal.com/pics/pics_preview/7/5/1/18547157.jpg"
  },
  {
    "name": "Виштынецкое озеро",
    "latitude": 54.426944,
    "longitude": 22.725,
    "photoUrl": "https://kuryokhin.ru/wp-content/uploads/a52a9c9e-04a9-11eb-ba05-ae4b04aefeeb.800x600-770x330.jpg"
  },
  {
    "name": "Река Шешупе",
    "latitude": 54.967581,
    "longitude": 22.714524,
    "photoUrl": "https://sun9-21.userapi.com/impg/kViEuT62VBAeXXWOetXBcJaWeak5hy-OZhV9jQ/-lCEE1z2gvM.jpg?size=807x535&quality=96&sign=6de722532a24aa122b75c1c9bd1d6291&c_uniq_tag=jtTUFN7aBFRfTLtbjV1va7w6KRfFHcBENh8SK6Bz518&type=album"
  },
  {
    "name": "Река Анграпа",
    "latitude": 54.476646,
    "longitude": 22.04428,
    "photoUrl": "https://i.ytimg.com/vi/mHR6QiIkxkY/hqdefault.jpg"
  },
  {
    "name": "Река Лава",
    "latitude": 54.39826,
    "longitude": 21.022336,
    "photoUrl": "https://probankrotstvo.ru/storage/files/assets/image_small/2023_10_03-4103_d3b6ea2b7d1716b8b6921ae37c262efb.jpg"
  },
  {
    "name": "Река Инструч",
    "latitude": 54.81226,
    "longitude": 22.072855,
    "photoUrl": "https://vsegda-pomnim.com/uploads/posts/2022-03/thumbs/1647062265_1-vsegda-pomnim-com-p-reka-instruch-foto-1.jpg"
  },
  {
    "name": "Река Преголя",
    "latitude": 54.645994,
    "longitude": 21.070219,
    "photoUrl": "http://rasfokus.ru/images/photos/small/dbc4be5eba811d1531adfccdbf7438e9.jpg"
  },
  {
    "name": "Озеро Мариново",
    "latitude": 54.413653,
    "longitude": 22.507173,
    "photoUrl": "https://burobiz-a.akamaihd.net/uploads/images/78015/medium_Marinovo8.jpg"
  },
  {
    "name": "Красное озеро",
    "latitude": 54.350511,
    "longitude": 22.325138,
    "photoUrl": "https://sun9-65.userapi.com/impg/pY2GsBVklqopJUR9ZvKwuE2H0kKeXYnb6vtqEg/yPOjOlcjnYM.jpg?size=604x449&quality=96&sign=f116cf89be9512774e699bd17cf29dbf&c_uniq_tag=Ysk9v0TMa-v5qi5zETX3psN19jQPT3jm2_4b25sKzvM&type=album"
  },
  {
    "name": "Озеро Лебедь",
    "latitude": 55.245163,
    "longitude": 20.944248,
    "photoUrl": "https://30.img.avito.st/image/1/1.AacdHra2rU4LvhdOExYsqvi9rUSjHaz0qb2v.f0_CEuldAvx2dzp93dDVBKb2OvmOfURz9a5Wnw8NqQ0"
  },
  {
    "name": "Озеро Чайка",
    "latitude": 55.151631,
    "longitude": 20.828563,
    "photoUrl": "https://sun9-56.userapi.com/impg/iUsEm5xZ9It32TdfkVlnz3Qlu1639Qi7YQMIeg/3OMc6rQDGsw.jpg?size=130x97&quality=95&sign=8dbf47c5d10cc296993734128ca3a4e0&c_uniq_tag=yc7vNcIvXAdlaF9Nt4LwaBiTwaUHKCTnYM5gAT7s_FQ&type=album"
  },
  {
    "name": "Озеро Янтарное",
    "latitude": 54.887325,
    "longitude": 19.948436,
    "photoUrl": "https://cf.bstatic.com/xdata/images/hotel/max300/304105953.jpg?k=ade0261af866275baf2a69bfe70ec9156b68f94f2430f3f4a22529db473a2945&o=&hp=1"
  },
  {
    "name": "Голубые озера",
    "latitude": 54.648146,
    "longitude": 20.354639,
    "photoUrl": "https://04.img.avito.st/image/1/1.Wav3y7a29ULha09CyZY6hydo9UhJyPT4Q2j3.VXkzvjMCwimB02eNDB1GexPxiyw9HseZ-CleqWxgz3M"
  },
  {
    "name": "Лесное озеро",
    "latitude": 54.717142,
    "longitude": 20.389574,
    "photoUrl": "https://day-off39.ru/images/multithumb_thumbs/c_180_120_16777215_00_images_uploads_otdyh-kld-obl_otdyh-kld_ozero-lesnoe_1.jpg"
  },
  {
    "name": "Озеро Карповское",
    "latitude": 54.698811,
    "longitude": 20.406921,
    "photoUrl": "https://kaliningrad.bezformata.com/content/image613330932.jpg"
  },
    {
    "name": "Успенский собор в Омске",
    "latitude": 54.990215,
    "longitude": 73.366743,
    "photoUrl": "https://sun9-18.userapi.com/impg/sWUkmJPTChfDumA6GvxBLL4BssLATtKps2GQjw/gMv62vEpt1g.jpg?size=604x403&quality=96&sign=7410802e5dd8e3db495c9870fcd0cf76&type=album"
  },
  {
    "name": "Пять озер",
    "latitude": 56.406804,
    "longitude": 75.623091,
    "photoUrl": "http://sportonline.biz/uploads/pics90/ekstremalnie-vidi-sporta-obsugdaem-zadaem-voprosi-sovetuemsya-ishchem-poputchikov-po-marshrutu-karakolskie-ozera.jpg"
  },
  {
    "name": "Берег Драверта",
    "latitude": 55.4656,
    "longitude": 73.4359,
    "photoUrl": "https://avatars.mds.yandex.net/get-altay/4479219/2a00000181d33334c87197195e99a8597b0b/L_height"
  },
  {
    "name": "Озеро Эбейты",
    "latitude": 54.666667,
    "longitude": 71.75,
    "photoUrl": "https://sun9-18.userapi.com/impg/YtNbz6Az7_6LnsnggRkIIXBB1TOVRTgVr-rIaQ/IIEaudJsWHk.jpg?size=604x604&quality=96&sign=c81708a52234e80456085a637950f3bb&type=album"
  },
  {
    "name": "Озеро Ульжай",
    "latitude": 54.252936,
    "longitude": 75.108931,
    "photoUrl": "https://nnnow.ru/wp-content/uploads/images/44664_malovode-ili-net-syuzhet.jpg"
  },
  {
    "name": "Река Иртыш",
    "latitude": 54.785662,
    "longitude": 73.582884,
    "photoUrl": "https://omsk.bezformata.com/content/image268904535.jpg"
  },
  {
    "name": "Река Оша",
    "latitude": 56.905917,
    "longitude": 73.881357,
    "photoUrl": "https://oreke.ru/wp-content/uploads/2022/10/reka-osha-1024x761.jpg"
  },
  {
    "name": "Река Яман",
    "latitude": 56.027962,
    "longitude": 71.316074,
    "photoUrl": "https://sun9-77.userapi.com/impg/8-bLZS2dLltvzzTBmuxDalHFFEDQ0pGxnIFBrg/xpQuKg8I9b8.jpg?size=604x453&quality=95&sign=e9d1025c3060367d50666133ad5a018a&c_uniq_tag=4DiVG3iwIwocVsadz4MDwj6Fng16_z7hi9X_nv0cFFc&type=album"
  },
  {
    "name": "Корниловская балка",
    "latitude": 55.015913,
    "longitude": 73.941233,
    "photoUrl": "https://photos.wikimapia.org/p/00/03/63/12/78_big.jpg"
  },
  {
    "name": "Озеро Ик",
    "latitude": 56.055161,
    "longitude": 71.550803,
    "photoUrl": "https://vsegda-pomnim.com/uploads/posts/2022-03/thumbs/1647370702_60-vsegda-pomnim-com-p-ozero-saltaim-foto-63.jpg"
  },
  {
    "name": "Лебединое озеро (Круглое)",
    "latitude": 54.992575,
    "longitude": 71.510235,
    "photoUrl": "https://www.fotoprizer.ru/img/113364_big.jpg"
  },
  {
    "name": "Лебяжье озеро",
    "latitude": 54.780556,
    "longitude": 75.522778,
    "photoUrl": "https://sun9-76.userapi.com/impg/QKBNnwPCUJxzQKHHdpcIkes1waT2jxkbz9Nx4A/DLt0Qcqet5g.jpg?size=604x407&quality=95&sign=dd5a22cb5304a9fafec5891e7ff48c5c&c_uniq_tag=jkrbsb_s-LoAMe8YhYLktH39LynOQjjpUfseP4FeVOY&type=album"
  },
  {
    "name": "Телецкое озеро",
    "latitude": 51.57366,
    "longitude": 87.67227,
    "photoUrl": "https://static.tildacdn.com/tild6335-3731-4562-b834-613639333466/-/resize/504x/image.png"
  },
  {
    "name": "Река Катунь",
    "latitude": 51.39181,
    "longitude": 86.00168,
    "photoUrl": "https://s00.yaplakal.com/pics/pics_preview/3/8/0/2261083.jpg"
  },
  {
    "name": "Гора Белуха",
    "latitude": 49.80844,
    "longitude": 86.58939,
    "photoUrl": "https://image.noks.kz/uploads/static/news/images/thumbnails/39199afe27da5bf77829171c742dfe0e.jpeg"
  },
  {
    "name": "Аккемское озеро",
    "latitude": 49.90696,
    "longitude": 86.54696,
    "photoUrl": "https://travelpoisk.ru/sibir/altay/prirodnyy-park-beluha/800/prirodnyy-park-beluha_1.jpg"
  },
  {
    "name": "Долина Ярлу ",
    "latitude": 49.92125,
    "longitude": 86.57646,
    "photoUrl": "https://sun9-83.userapi.com/s/v1/if2/vX_T3c1GqvaW4ONHGGTadA195D_AP4XYq3aUC91inpL-idggWWF76yyKWU4G42mjdfAIQq_ecmS9JSUHMLBetNWE.jpg?size=200x133&quality=96&type=album"
  },
  {
    "name": "Водопад Текелю",
    "latitude": 49.98222,
    "longitude": 86.52755,
    "photoUrl": "http://nashaltay.ru/wp-content/uploads/2016/05/4tek.jpg"
  },
  {
    "name": "вершина Ак-Оюк",
    "latitude": 49.89914,
    "longitude": 86.50682,
    "photoUrl": "https://sun9-52.userapi.com/impf/c857528/v857528139/8e58/Q0rfTng-VSY.jpg?size=604x400&quality=96&sign=45fc5e692b30d41504f3308ac365b8c1&c_uniq_tag=D2iRv1m5n7p5h2QvSwPd242Zl_NT3KYlugOWgiYLwdU&type=album"
  },
  {
    "name": "Слияние рек Чуя и Катунь",
    "latitude": 50.39416,
    "longitude": 86.67175,
    "photoUrl": "https://sun9-88.userapi.com/c841423/u400425600/video/l_d7ffe2d9.jpg"
  },
  {
    "name": "Гейзерное озеро",
    "latitude": 50.28924,
    "longitude": 87.66711,
    "photoUrl": "https://static.tildacdn.com/tild3262-6164-4365-b830-383663666230/-/resize/504x/geyzernoe_ozero_alta.jpg"
  },
  {
    "name": "Акташский ретранслятор",
    "latitude": 50.34133,
    "longitude": 87.74969,
    "photoUrl": "https://domik.travel/system/photos/pictures/001/571/417/main/open-uri20230727-874-wayig2.jpg?1690454164"
  },
  {
    "name": "Радужные горы урочища Кызыл-Чин",
    "latitude": 50.05923,
    "longitude": 88.29661,
    "photoUrl": "https://turistka.ru/i/0568/img/s/s_Mars1.jpg"
  },
  {
    "name": "Перевал Кату-Ярык",
    "latitude": 50.90991,
    "longitude": 88.2179,
    "photoUrl": "https://avkapranov.ru/wp-content/uploads/2020/02/katu-yaruk.jpg"
  },
  {
    "name": "Водопад Учар",
    "latitude": 51.11775,
    "longitude": 88.09055,
    "photoUrl": "https://60.img.avito.st/image/1/1.6bnCxba5RVD0bIdVnKLI0_xnR1ZyZMdYtGFHVH5sT1I.JthqIw4ueAa4BK5NP7KsWY5giaLrl1aSLH_WcMlg2OA"
  },
  {
    "name": "Водопад Корбу",
    "latitude": 51.7065,
    "longitude": 87.6843,
    "photoUrl": "https://sun9-19.userapi.com/impg/IXqE_IAR2zEZRl4cZeW9ijR_yperR6VXC5a__Q/Jt7J5svAukY.jpg?size=537x240&quality=96&sign=a54ad483d2d5d9b4129e087467e6ce07&c_uniq_tag=lL_EARUlja5DcbUn73Rz1fYGOmk8xittSbBdugnual0&type=share"
  },
  {
    "name": "Река Чулышман",
    "latitude": 51.3542,
    "longitude": 87.7604,
    "photoUrl": "https://static.tildacdn.com/tild3338-3539-4031-a266-353666303463/-/resize/504x/WhatsApp_Image_2021-.jpeg"
  },
  {
    "name": "Водопад Куркуре",
    "latitude": 50.9005,
    "longitude": 88.2565,
    "photoUrl": "https://sun9-20.userapi.com/impg/WYEBa6Q82KOWEYxwmoavdRGfDC2rvsBo2cGM1A/njd7ARVLtok.jpg?size=604x403&quality=95&sign=dc0a9b3fa9c5e9ae5fe21b19fbdf5dd2&c_uniq_tag=m_-Jgb4msjq1vLuB8ytel0Sik1q6vwrDCbdQdcy3ON0&type=album"
  },
  {
    "name": "Голубое озеро в долине Актру",
    "latitude": 50.0797,
    "longitude": 87.725,
    "photoUrl": "https://sun9-12.userapi.com/impg/TycPP85M_lT3LF5RAT1umXYF4woAwf6dgZ9jjQ/NkYDEbHIgR8.jpg?size=604x312&quality=96&sign=330298a19171506de5d18b0863839c1c&type=album"
  },
  {
    "name": "Водопад Ширлак",
    "latitude": 50.3456,
    "longitude": 87.2191,
    "photoUrl": "https://tur-ray.ru/wp-content/uploads/2022/08/vodopad-shirlak.jpg"
  },
  {
    "name": "Калбак-Таш",
    "latitude": 50.4014,
    "longitude": 86.8181,
    "photoUrl": "http://astrosymbol.com/wp-content/uploads/2019/04/%D0%BA%D0%B0%D0%BB%D0%B1%D0%B0%D0%BA-%D1%82%D0%B0%D1%883-1024x768.jpg"
  },
  {
    "name": "Перевал Чике-Таман",
    "latitude": 50.6449,
    "longitude": 86.312,
    "photoUrl": "https://sun9-32.userapi.com/impf/ixTOtOEHtSyqs4bAWgwInaNBAo_Qtc8ustvbGQ/AQXsspuUGEY.jpg?size=130x87&quality=96&crop=111,0,1826,1222&sign=cf5af4134a4a982da387354b9d3d5db1&c_uniq_tag=SbzpABoG8p1Qpa6nnhLsnJL4dXbnfmMXQJAe_zEWmWQ&type=album"
  },
  {
    "name": "Семинский перевал",
    "latitude": 51.0452,
    "longitude": 85.6043,
    "photoUrl": "https://triiips.com/storage/app/media/category/sight/4d/16/64/1859_ff7bbe6d71e7c487_md.jpg"
  },
  {
    "name": "Плато Укок",
    "latitude": 49.3357,
    "longitude": 87.5,
    "photoUrl": "https://static.tildacdn.com/tild3438-3163-4530-b861-363738333263/-/resize/504x/1647123510_1-sportis.jpg"
  },
  {
    "name": "Аккемское озеро",
    "latitude": 49.9113,
    "longitude": 86.5441,
    "photoUrl": "https://avatars.mds.yandex.net/get-entity_search/4731417/726119348/S156x156Smart_2x"
  },
  {
    "name": "Река Катунь",
    "latitude": 52.448069,
    "longitude": 85.17846,
    "photoUrl": "https://i.ytimg.com/vi/G_o4ReGUPZs/hqdefault.jpg"
  },
  {
    "name": "Кулундинское озеро",
    "latitude": 52.980044,
    "longitude": 79.545513,
    "photoUrl": "http://altaizhemchuzhina.ru/wp-content/uploads/2011/12/0_7e24a_85e32e69_L-300x225.jpg"
  },
  {
    "name": "Озеро Ая",
    "latitude": 51.904532,
    "longitude": 85.853654,
    "photoUrl": "https://sun9-57.userapi.com/impg/afRxCwgjl7lFqvoH5IOC2D6bbfQtPveRr4T8_g/V4618ofRbys.jpg?size=604x453&quality=95&sign=835b1ec4fab2bb1c9357a29d93431a25&c_uniq_tag=vVU_pQa0nfvrnfD3AgAtxCOgf4VixJytP1KQ1G1b8LA&type=album"
  },
  {
    "name": "Колыванское озеро",
    "latitude": 51.365577,
    "longitude": 82.194079,
    "photoUrl": "https://i.ytimg.com/vi/w41ABkIqBmg/mqdefault.jpg"
  },
  {
    "name": "Озеро Моховое",
    "latitude": 51.252746,
    "longitude": 82.560115,
    "photoUrl": "https://altturizm.ru/upload/shop_1/1/5/5/item_1557/small_shop_property_file_1557_8203.jpg"
  },
  {
    "name": "Малиновое озеро",
    "latitude": 51.701987,
    "longitude": 79.74608,
    "photoUrl": "https://sun9-36.userapi.com/impg/c4tRrd45fJP73-51kCxw7LzJltwD5KCBBGRV0w/nhIpIzkn3_M.jpg?size=604x402&quality=96&sign=71c60e1157a48ab9395e823befe06182&type=album"
  },
  {
    "name": "Озеро Горькое",
    "latitude": 51.365971,
    "longitude": 80.561588,
    "photoUrl": "https://photos.wikimapia.org/p/00/04/66/19/51_big.jpg"
  },
  {
    "name": "Озеро Зеркальное",
    "latitude": 52.514637,
    "longitude": 81.857148,
    "photoUrl": "https://2spinninga.ru/wp-content/uploads/2022/12/zerkal01-400x300.jpg"
  },
  {
    "name": "Белое озеро",
    "latitude": 52.232509,
    "longitude": 83.852405,
    "photoUrl": "https://sun9-67.userapi.com/impg/xTFi2H3TxrSk-wp_UD39kawKnKoLe1hj44VQmQ/AwdIsYdDd14.jpg?size=604x347&quality=96&sign=24e46740ad177f369228c7b7f070e7ec&c_uniq_tag=TevjkITCw3m5eL-3wINLxu_WrmpY3YEOY2Odv-Mg0_8&type=album"
  },
  {
    "name": "Гора Синюха",
    "latitude": 51.241431,
    "longitude": 82.607293,
    "photoUrl": "https://i.siteapi.org/N5RfdkWjD1WqP_96E7P3-76ayk4=/fit-in/330x/top/9378470697987dd.ru.s.siteapi.org/img/faa097f8583322c7e6e96fc2a11ea536c8a26552.jpg"
  },
  {
    "name": "Гора Очаровательная",
    "latitude": 51.356768,
    "longitude": 82.606683,
    "photoUrl": "https://kurya.ru/images/pages/pic/231_197.jpg"
  },
  {
    "name": "Чертов палец",
    "latitude": 51.611852,
    "longitude": 82.817209,
    "photoUrl": "https://upload.wikimedia.org/wikipedia/commons/6/60/Devil%27s_Finger_rock_in_Katun_river%2C_Altai_Mountains%2C_Russia.JPG"
  },
  {
    "name": "Озеро Киделю",
    "latitude": 51.796428,
    "longitude": 84.290057,
    "photoUrl": "https://aviomedia.ru/upload/medialibrary/2a2/2a29b54ed8c41da93e159c01d61e5dbb.jpg"
  },
  {
    "name": "Водопад Графские протоки",
    "latitude": 51.700897,
    "longitude": 83.852631,
    "photoUrl": "https://webgid.net/wp-content/uploads/2017/11/n4Yh9-yumSA.jpg"
  },
  {
    "name": "Гора Бий",
    "latitude": 52.505353,
    "longitude": 84.205888,
    "photoUrl": "https://i.ytimg.com/vi/jMEhQtD5Y54/maxresdefault.jpg"
  },
  {
    "name": "Озеро Телецкое",
    "latitude": 51.775211,
    "longitude": 87.750221,
    "photoUrl": "https://img.tourister.ru/files/4/2/8/6/6/9/7/9/original.jpg"
  },
  {
    "name": "Водопад Каракольские Просторы",
    "latitude": 51.714722,
    "longitude": 87.934722,
    "photoUrl": "https://kordon84.ru/wp-content/uploads/2020/10/9-114.jpg"
  },
  {
    "name": "Озеро Шавлинское",
    "latitude": 51.621944,
    "longitude": 88.069722,
    "photoUrl": "https://pics.wikireading.ru/7/7c/%D0%9E%D0%B7%D0%B5%D1%80%D0%BE_%D0%A8%D0%B0%D0%B2%D0%BB%D0%B8%D0%BD%D1%81%D0%BA%D0%BE%D0%B5_%D0%90%D0%BB%D1%82%D0%B0%D0%B9.jpg"
  },
  {
    "name": "Озеро Каракольское",
    "latitude": 51.7515,
    "longitude": 87.9795,
    "photoUrl": "https://upload.wikimedia.org/wikipedia/commons/8/8e/Karakol-lake-altai-1.JPG"
  },
  {
    "name": "Озеро Пантулей",
    "latitude": 51.7155,
    "longitude": 87.9915,
    "photoUrl": "https://kordon84.ru/wp-content/uploads/2020/10/9-119.jpg"
  },
    {
    "name": "Байкал",
    "latitude": 53.405332,
    "longitude": 107.673058,
    "photoUrl": "https://detkam-lib.ru/web/uploads/modules/site/news/redactor/60c14bbbda900.jpg"
  },
  {
    "name": "Скала Шаманка",
    "latitude": 53.203992,
    "longitude": 107.338688,
    "photoUrl": "http://baik-info.ru/sites/default/files/unknown_0.jpeg"
  },
  {
    "name": "Река Лена",
    "latitude": 53.874734,
    "longitude": 107.15141,
    "photoUrl": "https://sdelanounas.ru/i/6/0/9/x250_60928.jpeg"
  },
  {
    "name": "Река Ангара",
    "latitude": 52.27834,
    "longitude": 104.268385,
    "photoUrl": "https://avatars.dzeninfra.ru/get-zen_doc/9811263/pub_6469856bbd80f237b1bbe674_6469871efc7bc51b6a604797/scale_1200"
  },
  {
    "name": "Озеро Шара-Нур",
    "latitude": 53.104633,
    "longitude": 107.255027,
    "photoUrl": "https://mygeografi.ru/wp-content/uploads/2020/08/shara-nur-na-olhone-e1597135603406.jpg"
  },
  {
    "name": "Озеро Сердце",
    "latitude": 51.509341,
    "longitude": 103.625923,
    "photoUrl": "http://t2.gstatic.com/images?q=tbn:ANd9GcSay-6dMupY80j1YrdJIviHGt2l3y67SmYh96_tbPMrhADNFHoV0NqCVg"
  },
  {
    "name": "Соляной источник",
    "latitude": 52.766184,
    "longitude": 103.675775,
    "photoUrl": "https://avatars.mds.yandex.net/get-altay/5308697/2a0000017b6bf4bdadb75825dd53c9c82de6/S"
  },
  {
    "name": "Уковский водопад",
    "latitude": 55.025081,
    "longitude": 98.968164,
    "photoUrl": "https://i.pinimg.com/236x/7e/6a/d9/7e6ad9a3faf95001d9f660d11074070e.jpg"
  },
  {
    "name": "Приморский хребет",
    "latitude": 52.833333,
    "longitude": 106.166667,
    "photoUrl": "https://chara-baikal.ru/assets/images/blog/146.jpg"
  },
  {
    "name": "Байкальский хребет",
    "latitude": 55.058333,
    "longitude": 108.691667,
    "photoUrl": "https://sun9-40.userapi.com/impf/c850132/v850132851/b87da/kdYAblqqUI4.jpg?size=604x453&quality=96&sign=e39aa5350c4511cb660bd6643a987232&type=album"
  },
  {
    "name": "Кодарский хребет",
    "latitude": 56.915132,
    "longitude": 117.479772,
    "photoUrl": "https://sun9-21.userapi.com/impg/sRZ7PBZKWVP-TrGBke2fm_RUCWMZzKReAk9byQ/NuQeduubUhU.jpg?size=604x391&quality=95&sign=49838a584251cc291891f934cc9cf145&c_uniq_tag=S-1w5TdUlmBrrgW_bijcsBz2_7OGf7zQy3N14h46e_8&type=album"
  },
  {
    "name": "Гора Пихтовая",
    "latitude": 56.174777,
    "longitude": 101.700009,
    "photoUrl": "https://ski2.ru/statics/thumbnails/57/57fb4f546f81cc2754ac093883e5429b.jpg"
  },
  {
    "name": "Гора Ехэ-Ёрдо",
    "latitude": 52.790978,
    "longitude": 106.528851,
    "photoUrl": "http://oceanbaikal.ru/photo/l/0_352_untitled.jpg"
  },
  {
    "name": "Шаман-Камень",
    "latitude": 51.875345,
    "longitude": 104.821605,
    "photoUrl": "https://stihi.ru/pics/2021/07/17/6297.jpg"
  },
  {
    "name": "Мыс Хобой",
    "latitude": 53.410625,
    "longitude": 107.789507,
    "photoUrl": "https://avatars.mds.yandex.net/get-altay/6222916/2a000001815af7be41be7acce1c2cc5daf24/M_height"
  },
  {
    "name": "Патомский кратер",
    "latitude": 59.291529,
    "longitude": 116.577034,
    "photoUrl": "https://irkutsk.news/upload/000/u1/10513/1bf08140.jpg"
  },
  {
    "name": " Мыс Бурхан",
    "latitude": 53.204189,
    "longitude": 107.338578,
    "photoUrl": "https://www.myjane.ru/data/cache/2022may/11/16/1067676_71841-160x120x.jpg"
  },
  {
    "name": "Озеро Большой Берчикуль",
    "latitude": 55.611043,
    "longitude": 88.343891,
    "photoUrl": "https://sun9-27.userapi.com/impg/aa1Y0kpXWj8xN05mN7pocz1L7bcTai5t7uPu1Q/9hoJevdeSM0.jpg?size=480x213&quality=96&sign=28b185a106c951ce2a9fb73ed501b0ac&c_uniq_tag=jnkrLf1TXVkpiBUou2os-ZJlQeVnfmAiHKN0KBt_D6I&type=album"
  },
  {
    "name": "Салаирский кряж",
    "latitude": 54.089722,
    "longitude": 85.827778,
    "photoUrl": "https://sun9-77.userapi.com/impg/wzjcO4uunkrmFNAz61rhdDBKztercXkzKeKYFg/Mqv_D_gkJ6M.jpg?size=604x397&quality=96&sign=86399bfcf92f33a4be90529b1c72511a&type=album"
  },
  {
    "name": "Гора Зелёная",
    "latitude": 52.948556,
    "longitude": 87.928537,
    "photoUrl": "https://www.cigarinfo.ru/upload/uploads/2021/02/sheregesh-335x220.jpg"
  },
  {
    "name": "Тутальские скалы",
    "latitude": 55.708333,
    "longitude": 85.006111,
    "photoUrl": "https://upload.wikimedia.org/wikipedia/commons/thumb/0/0d/Тутальские_скалы.JPG/280px-Тутальские_скалы.JPG"
  },
  {
    "name": "Царские ворота",
    "latitude": 53.050987,
    "longitude": 88.415012,
    "photoUrl": "https://sun9-16.userapi.com/impg/G7SrtBIvJhLKm1fDNi8T7-D0wBJd4VvTa5IuNA/h-GsZ8Yo194.jpg?size=604x337&quality=95&sign=53174a431db46f7bacf27211f9e79cb7&type=album"
  },
  {
    "name": "Разрезы Кузбасса",
    "latitude": 54.228056,
    "longitude": 87.020278,
    "photoUrl": "https://yablor.ru/media/images/top/preview/icpicslivejournalcommax_andriyahov52964443884058884058_1000.jpg"
  },
  {
    "name": "Озеро Танай",
    "latitude": 54.795328,
    "longitude": 84.998784,
    "photoUrl": "https://sun9-77.userapi.com/impg/LOpg5EVZJ5bLTxMFJ3uT0OCRMWccxwytVRuZGQ/ycPDKKKwPqQ.jpg?size=604x405&quality=96&sign=5137b4a5768c1beadd2c58be0dcc6ef1&c_uniq_tag=dOI_9YHCm0eq8hLRnTcXvf2kHQFEVO050_1-DwvSMNc&type=album"
  },
  {
    "name": "Беловское водохранилище",
    "latitude": 54.424582,
    "longitude": 86.462406,
    "photoUrl": "https://i4.olan.ru/system/photos/entity/929/237/231/medium/img.jpg?1697178371"
  },
  {
    "name": "Озеро Среднетерсинское",
    "latitude": 54.386939,
    "longitude": 88.359351,
    "photoUrl": "https://upload.wikimedia.org/wikipedia/commons/thumb/a/ac/Озеро_Среднетерсинское.jpg/240px-Озеро_Среднетерсинское.jpg"
  },
  {
    "name": "Озеро Рыбное",
    "latitude": 54.329709,
    "longitude": 88.403153,
    "photoUrl": "https://vsegda-pomnim.com/uploads/posts/2022-03/thumbs/1648748519_49-vsegda-pomnim-com-p-karagaiskoe-ozero-foto-55.jpg"
  },
  {
    "name": "Водопад Сага",
    "latitude": 52.986627,
    "longitude": 88.370484,
    "photoUrl": "https://sun9-9.userapi.com/impg/D4yK7swVz5dn09iPLxDz2kBf9g46zmLvi9M16w/o_uJnVXTrYU.jpg?size=604x403&quality=96&sign=d1af4ac3ab0bfb467096f9d9aa69bbc5&c_uniq_tag=1PQ7yrT5uZEkkfyl2pDNYTdMMeJxtPqrpO7_EzBYOGs&type=album"
  },
  {
    "name": "Иткаринский водопад",
    "latitude": 55.967033,
    "longitude": 84.979489,
    "photoUrl": "https://a.d-cd.net/176f8f2s-960.jpg"
  },
  {
    "name": "Кедровский угольный разрез",
    "latitude": 55.519695282,
    "longitude": 86.092903137,
    "photoUrl": "https://railgallery.ru/photo/00/45/00/45007_s.jpg"
  },
  {
    "name": "Манская петля",
    "latitude": 55.872348,
    "longitude": 92.54723,
    "photoUrl": "https://storage.myseldon.com/news-pict-ff/FFB6F1BDA2468A24E30925DA3A4A340E"
  },
  {
    "name": "Массив Борус",
    "latitude": 52.789316,
    "longitude": 91.542605,
    "photoUrl": "https://i.ytimg.com/vi/N5pIrL0EXU0/hqdefault.jpg"
  },
  {
    "name": "Караульная гора",
    "latitude": 56.023574,
    "longitude": 92.863263,
    "photoUrl": "https://sun1-22.userapi.com/jshIUz6ZmXAAGDi3lu8BaPf5LRNAB03Q287X8w/Z0Nv7-WrRQk.jpg"
  },
  {
    "name": "Тальниковый водопад",
    "latitude": 68.445556,
    "longitude": 93.294444,
    "photoUrl": "https://www.amic.ru/images/news/news/185828_320.jpg"
  },
  {
    "name": "Мраморный водопад",
    "latitude": 52.820403,
    "longitude": 93.37988,
    "photoUrl": "https://ergaki.com/gallery/preview150/1623828374_3.jpg"
  },
  {
    "name": "Водопад Красные камни",
    "latitude": 69.48108,
    "longitude": 88.531964,
    "photoUrl": "https://vsegda-pomnim.com/uploads/posts/2023-03/thumbs/1679167192_vsegda-pomnim-com-p-talnakh-krasnie-kamni-foto-2.jpg"
  },
  {
    "name": "Красноярское море",
    "latitude": 55.1098,
    "longitude": 91.5772,
    "photoUrl": "https://sun1-14.userapi.com/s/v1/ig2/GijHhdqLH9FuzRm83y_UOEHwvMW6RxKUZFyu9o8HTZwDb8OCP2d4EDVmoDbVNSGRj4NUKhjaIlQKGsSQZhEkcZcN.jpg?size=400x400&quality=95&crop=200,0,800,800&ava=1"
  },
  {
    "name": "Кутурчинское Белогорье",
    "latitude": 54.7068,
    "longitude": 94.6081,
    "photoUrl": "https://sun9-33.userapi.com/impf/50yWJWz_ZQ0CvKDNytVDlXFxvGFTJSf-sWCsBA/KHJ7gS7kkak.jpg?size=604x402&quality=95&sign=3c52590dcb95ce40649c0061b347b2c3&type=album"
  },
  {
    "name": "Богунайский водопад",
    "latitude": 55.966511,
    "longitude": 92.687425,
    "photoUrl": "https://sun9-33.userapi.com/impg/Xke2ynX6N5bPXL6vQL7GaUGOTn9E987ZJQllMQ/rY1_AygJsj8.jpg?size=807x807&quality=96&sign=929e35f4dc0c09cbe080f5f3f7003144&c_uniq_tag=ZE1zGxImSM0SdWHWl4nswCksQYPAhFVsHirGxSrocVA&type=album"
  },
  {
    "name": "Озера Шарыповского района",
    "latitude": 55.352708,
    "longitude": 89.11606,
    "photoUrl": "https://i.ytimg.com/vi/Uez2NBidwQ8/hqdefault.jpg"
  },
  {
    "name": "Озеро Инголь",
    "latitude": 55.535728,
    "longitude": 88.845026,
    "photoUrl": "https://img1.advisor.travel/fs440x440px-Ozero_Ingol_17.jpg"
  },
  {
    "name": "Черная сопка",
    "latitude": 55.917859,
    "longitude": 93.070979,
    "photoUrl": "https://sun9-14.userapi.com/c851020/v851020094/1acabf/YNe_Q0l9V0M.jpg"
  },
  {
    "name": "Сопка Метеоритная",
    "latitude": 54.9,
    "longitude": 91.8,
    "photoUrl": "https://sibguide.ru/wp-content/uploads/2022/05/gora-kara-dag-krasnoyarsk-2.jpg"
  },
  {
    "name": "Гора Тепсей",
    "latitude": 53.949813,
    "longitude": 91.566249,
    "photoUrl": "https://tripmir.com/assets/images/1646/routes/185/gallery/4f9e28970226171c915ef46d4379ac6c.jpg"
  },
  {
    "name": "Озеро Таймыр",
    "latitude": 74.558117,
    "longitude": 102.221515,
    "photoUrl": "https://otvet.imgsmail.ru/download/u_285baa5c8be5fc0646c8d73290770325_800.jpg"
  },
  {
    "name": "Озеро Виви",
    "latitude": 66.726032,
    "longitude": 93.968531,
    "photoUrl": "https://static.tildacdn.com/tild3932-3865-4164-a233-393633306264/-/resize/504x/1414346088_vivi0.jpg"
  },
  {
    "name": "Кетское море",
    "latitude": 69.8,
    "longitude": 89.166667,
    "photoUrl": "https://www.1zoom.ru/big2/579/305460-frederika.jpg"
  },
  {
    "name": "Тунка",
    "latitude": 51.781694,
    "longitude": 102.180778,
    "photoUrl": "https://tourist.tuvaonline.ru/photos/gallery_282/1260900_xl.jpg"
  },
  {
    "name": "Большое Белое озеро",
    "latitude": 51.405514,
    "longitude": 105.567499,
    "photoUrl": "https://blogamitour.ru/wp-content/uploads/2022/01/lake-1108932_1280-4-650x433.jpg"
  },
  {
    "name": "Гора Кумары",
    "latitude": 52.916667,
    "longitude": 107.166667,
    "photoUrl": "https://trip-baikal.ru/ugleod/116-cd/gora-kumara.jpg"
  },
  {
    "name": "Озеро Тугнуй",
    "latitude": 53.804444,
    "longitude": 107.329444,
    "photoUrl": "https://s3.travelhike.ru/uploads/2021/09/625a3cf85f03605bd4b4dd8c.jpeg"
  },
  {
    "name": "Мыс Червячий",
    "latitude": 55.256895,
    "longitude": 108.759439,
    "photoUrl": "https://sdelanounas.ru/i/7/0/1/x250_70117.jpeg"
  },
  {
    "name": "Река Кантегир",
    "latitude": 55.832986,
    "longitude": 104.537102,
    "photoUrl": "https://avatars.mds.yandex.net/get-altay/1631641/2a000001765eddf9df949a46c95ff7984bc7/M"
  },
    {
    "name": "Озеро Карачи",
    "latitude": 55.355403,
    "longitude": 76.944745,
    "photoUrl": "https://i.ytimg.com/vi/_zSyVAF3W8E/hqdefault.jpg"
  },
  {
    "name": "Салаирский кряж",
    "latitude": 54.457453,
    "longitude": 85.000337,
    "photoUrl": "https://sun9-77.userapi.com/impg/wzjcO4uunkrmFNAz61rhdDBKztercXkzKeKYFg/Mqv_D_gkJ6M.jpg?size=604x397&quality=96&sign=86399bfcf92f33a4be90529b1c72511a&type=album"
  },
  {
    "name": "Буготакские сопки",
    "latitude": 55.092873,
    "longitude": 83.884125,
    "photoUrl": "https://sun9-49.userapi.com/s/v1/if2/NjKX8aaSTZX3wM0LmJWye2tEM-q9XctdSHmfm03CFqBMGzntslQA_etc6H5stq7Ulnk7mnKPSZSWl1AGaGWcOP4t.jpg?size=604x233&quality=95&type=album"
  },
  {
    "name": "Бердские скалы",
    "latitude": 54.609534,
    "longitude": 84.00677,
    "photoUrl": "https://filed3-12.my.mail.ru/pic?url=https%3A%2F%2Fcontent-13.foto.my.mail.ru%2Fcommunity%2Fzhivi_na_maks%2F_groupsphoto%2Fi-2.jpg&mw=400&mh=400&sig=f057f8f72f14efd148fd088a3c17d86f&max_frames=1"
  },
  {
    "name": "Улантова гора",
    "latitude": 54.882803,
    "longitude": 84.299987,
    "photoUrl": "https://mytb.space/upload/media/826/kr2kut9w1w7tiuiw404rolrcwoy2w7qi.jpg"
  },
  {
    "name": "Озеро Чаны",
    "latitude": 54.866321,
    "longitude": 77.619345,
    "photoUrl": "https://img.youtube.com/vi/vCzJHFJGQKs/0.jpg"
  },
  {
    "name": "Убинское озеро",
    "latitude": 55.467861,
    "longitude": 80.060652,
    "photoUrl": "https://chrontime.com/public/object/6/6330/_1302765495_442.jpg"
  },
  {
    "name": "Озеро Горькое",
    "latitude": 54.227414,
    "longitude": 77.9756,
    "photoUrl": "https://vpoisketurov.ru/800/600/http/dostoprimechatelnosti-m.ru/wp-content/uploads/2017/04/ozer148.jpg"
  },
  {
    "name": "Данилово озеро",
    "latitude": 56.426343,
    "longitude": 75.838992,
    "photoUrl": "https://catcher.fish/wp-content/uploads/2017/06/danilino0-500x375.jpg"
  },
  {
    "name": "Беловский водопад",
    "latitude": 54.5598,
    "longitude": 83.620666,
    "photoUrl": "https://i.ytimg.com/vi/rjrAYMztXK4/mqdefault.jpg"
  },
  {
    "name": "Карпысакский водопад",
    "latitude": 55.053096,
    "longitude": 83.730956,
    "photoUrl": "https://www.euromag.ru/storage/c/2021/08/18/1629355694_852085_52.jpg"
  },
  {
    "name": "Водопад Бучило",
    "latitude": 54.629166,
    "longitude": 83.830223,
    "photoUrl": "https://i1.photo.2gis.com/images/geo/0/30258560048547116_c751_300x300.jpg"
  },
  {
    "name": "Волчья грива",
    "latitude": 55.004215,
    "longitude": 80.595922,
    "photoUrl": "https://new-old.ngonb.ru/upload/iblock/3a9/td7vk7op9cdv30bci6xusbgxf3ybj06w.jpg"
  },
  {
    "name": "Суенгинские водопады",
    "latitude": 54.42504139769147,
    "longitude": 84.54182788329612,
    "photoUrl": "https://a.d-cd.net/d27d08es-960.jpg"
  },
  {
    "name": "Река Буготак",
    "latitude": 55.066888445741704,
    "longitude": 83.90990672974539,
    "photoUrl": "https://upload.wikimedia.org/wikipedia/commons/thumb/a/ae/%D0%A0%D0%B5%D0%BA%D0%B0_%D0%91%D1%83%D0%B3%D0%BE%D1%82%D0%B0%D0%BA_1.jpg/300px-%D0%A0%D0%B5%D0%BA%D0%B0_%D0%91%D1%83%D0%B3%D0%BE%D1%82%D0%B0%D0%BA_1.jpg"
  },
  {
    "name": "Буготакские сопки",
    "latitude": 54.88333,
    "longitude": 83.66666,
    "photoUrl": "https://sun9-49.userapi.com/s/v1/if2/NjKX8aaSTZX3wM0LmJWye2tEM-q9XctdSHmfm03CFqBMGzntslQA_etc6H5stq7Ulnk7mnKPSZSWl1AGaGWcOP4t.jpg?size=604x233&quality=95&type=album"
  },
  {
    "name": "Мраморное озеро Абрашино",
    "latitude": 54.22810690815401,
    "longitude": 85.27956423400447,
    "photoUrl": "https://avatars.mds.yandex.net/get-zen_doc/161438/pub_5b44a28011ff3e00a92f02f4_5b44a29f11ff3e00a92f02f7/scale_1200"
  },
  {
    "name": "Боровое озеро",
    "latitude": 54.412221,
    "longitude": 85.291084,
    "photoUrl": "https://cdn.fishki.net/upload/post/201405/07/1277934/11f57e3e122da7e6f05e93d2b7d9530b.jpg"
  },
  {
    "name": "Томские пески",
    "latitude": 56.490144,
    "longitude": 84.973916,
    "photoUrl": "https://tomspress.ru/media/news/2019/05/15/TSN_0557.JPG"
  },
  {
    "name": "Железноводское озеро",
    "latitude": 55.7157,
    "longitude": 84.2336,
    "photoUrl": "https://tonkosti.ru/pic/p/articles/a/d/9/2/ad920c100531c779fbab5a1152846e0d/1391969334.jpg"
  },
  {
    "name": "Гора Куня",
    "latitude": 53.89192,
    "longitude": 91.40586,
    "photoUrl": "https://intaba.ru/wp-content/uploads/2022/11/1-12-22.jpg"
  },
  {
    "name": "Горная гряда «Сундуки»",
    "latitude": 54.6637,
    "longitude": 89.70732,
    "photoUrl": "https://priroda.club/uploads/posts/2023-08/thumbs/1691605274_priroda-club-p-gryada-kholmov-pinterest-20.jpg"
  },
  {
        "name": "Гранитный каньон",
        "latitude": 44.162760,
        "longitude": 40.131906,
        "photoUrl": "https://sportishka.com/uploads/posts/2023-12/1702113629_sportishka-com-p-granitnii-kanon-guzeripl-krasivo-1.jpg"
    },
    {
        "name": "Грот Череп",
        "latitude": 44.248125,
        "longitude": 40.356092,
        "photoUrl": "https://ic.pics.livejournal.com/bahvalov_s/79545745/155781/155781_original.jpg"
    },
    {
        "name": "Кордон Гузерипль",
        "latitude": 43.995803,
        "longitude": 40.136011,
        "photoUrl": "https://sportishka.com/uploads/posts/2022-03/1646105327_23-sportishka-com-p-guzeripl-zapovednik-turizm-krasivo-foto-23.jpg"
    },
    {
        "name": "Горы Две Сестры в Белой Калитве",
        "latitude": 48.120806,
        "longitude": 40.733406,
        "photoUrl": "http://rasfokus.ru/images/photos/medium/9b9dabb45c75e53a79f188d39ccbe56b.jpg"
    },
    {
        "name": "Зайцевские скалы",
        "latitude": 47.95331919866614,
        "longitude": 40.49678965168814,
        "photoUrl": "https://sportishka.com/uploads/posts/2023-12/1702088485_sportishka-com-p-krasnii-sulin-kanon-vkontakte-65.jpg"
    },
    {
        "name": "Замок Лакиера",
        "latitude": 47.154499109829636,
        "longitude": 38.62490746031771,
        "photoUrl": "https://readablecard.com/userfiles/19/12578_0.webp"
    },
    {
        "name": "Дом-музей П.И.Чайковского",
        "latitude": 47.212488071156415,
        "longitude": 38.93809422282019,
        "photoUrl": "https://i0.wp.com/thecellist.ru/wp-content/uploads/2020/12/dom-muzej-petra-ilicha-chajkovskogo.jpg?w=1500&ssl=1"
    },
    {
        "name": "Гора Цахвоа",
        "latitude": 43.671755354770795,
        "longitude": 40.57794950591132,
        "photoUrl": "https://sportishka.com/uploads/posts/2022-03/thumbs/1646286805_11-sportishka-com-p-gora-tsakhvoa-turizm-krasivo-foto-11.jpg"
    },
    {
        "name": "Гора Черная пирамида",
        "latitude": 43.61202653215642,
        "longitude": 40.24919898300492,
        "photoUrl": "https://tur-ray.ru/wp-content/uploads/2020/02/gora-chernaya-piramida.jpg"
    },{
        "name": "Гора Фишт",
        "latitude": 43.941232204962496,
        "longitude": 39.901428861117296,
        "photoUrl": "http://sdrvdv.ru/wp-content/uploads/2023/09/3-165.jpg"
    },
    
    {
        "name": "Скайпарк в Адлере",
        "latitude": 43.52477501265366,
        "longitude": 39.996669214728406,
        "photoUrl": "https://static.tildacdn.com/tild3931-6635-4062-b531-363135346565/d345751350c06cf9dae4.jpg"
    },
    {
        "name": "Кипарисовое озеро Сукко",
        "latitude": 44.81192191460949,
        "longitude": 37.4405919552577,
        "photoUrl": "https://sportishka.com/uploads/posts/2022-11/1667576893_32-sportishka-com-p-anapa-ozero-s-kiparisami-instagram-32.jpg"
    },
    {
        "name": "Соленое озеро",
        "latitude": 44.679385947236746,
        "longitude": 37.802041520174,
        "photoUrl": "https://tur-ray.ru/wp-content/uploads/2018/04/Sudzhukskaya-kosa.jpg"
    },
    {
        "name": "Озеро Абрау",
        "latitude": 44.69803585422077,
        "longitude": 37.59383744080926,
        "photoUrl": "https://lukasamara.ru/images/site/2/abrau-3.jpg"
    },
    {
        "name": "Озеро Кардывач",
        "latitude": 43.57197622109548,
        "longitude": 40.62912722830175,
        "photoUrl": "https://sport-marafon.ru/upload/blog/img/05/0502-018.jpg"
    },
    {
        "name": "Агурские водопады",
        "latitude": 43.5586065947838,
        "longitude": 39.82602613630179,
        "photoUrl": "https://mykaleidoscope.ru/x/uploads/posts/2022-09/1663098928_11-mykaleidoscope-ru-p-agurskie-vodopadi-dostoprimechatelnosti-12.jpg"
    },
    {
        "name": "Плато \"Лаго-Наки\"",
        "latitude": 44.050339299483774,
        "longitude": 40.000053106903245,
        "photoUrl": "https://mediasole.ru/data/images/220/220034/18.jpg"
    },
    {
        "name": "Водопады Руфабго",
        "latitude": 44.263483,
        "longitude": 40.171862,
        "photoUrl": "https://travel-kmv.ru/blog/wp-content/uploads/2023/04/1651450667_21-vsegda-pomnim-com-p-vodopad-serdtse-rufabgo-foto-22.jpeg"
    },
    {
        "name": "Гора Оштен",
        "latitude": 43.989402,
        "longitude": 39.915932,
        "photoUrl": "https://photocentra.ru/images/main42/421091_main.jpg"
    },
    {
        "name": "Савранская канатная дорога",
        "latitude": 44.252123,
        "longitude": 40.211552,
        "photoUrl": "https://celes.club/uploads/posts/2022-05/1651697026_67-celes-club-p-kanatnaya-doroga-v-tseiskom-ushchele-priro-75.jpg"
    },
    {
        "name": "Гора Пшехо-Су",
        "latitude": 43.992685,
        "longitude": 39.890898,
        "photoUrl": "http://s2.fotokto.ru/photo/full/235/2355801.jpg"
    },
    {
        "name": "Сахрайские водопады",
        "latitude": 43.884673,
        "longitude": 42.588172,
        "photoUrl": "https://hotelabago.ru/wp-content/uploads/2019/06/1.jpeg"
    },
    {
        "name": "Скала Чертов палец",
        "latitude": 44.301208,
        "longitude": 40.233473,
        "photoUrl": "https://pic.rutubelist.ru/video/64/e3/64e3719c3d3694f10d5c658fc288269a.jpg"
    },
    {
        "name": "Даховский мост",
        "latitude": 44.239110,
        "longitude": 40.205580,
        "photoUrl": "https://vestikavkaza.ru/upload/files3/7043.jpg"
    },
    {
        "name": "Замок коварства и любви",
        "latitude": 43.896292,
        "longitude": 42.664938,
        "photoUrl": "https://avatars.dzeninfra.ru/get-zen_doc/1077599/pub_5fd263db4907305983e16e5d_5fd26447ffa0ae7709bbbc4f/scale_1200"
    },
    {
        "name": "Гора Трезубец",
        "latitude": 44.151644,
        "longitude": 40.136332,
        "photoUrl": "https://vsegda-pomnim.com/uploads/posts/2022-04/1650883392_20-vsegda-pomnim-com-p-gora-trezubets-adigeya-foto-20.jpg"
    },
    {
        "name": "Бештау",
        "latitude": 44.053571,
        "longitude": 43.041986,
        "photoUrl": "http://s1.fotokto.ru/photo/full/459/4597570.jpg"
    },
    {
        "name": "Гора Кольцо",
        "latitude": 43.951646,
        "longitude": 42.695871,
        "photoUrl": "https://turvopros.com/wp-content/uploads/2022/09/gora-kolco-kislovodsk.jpg"
    },
    {
        "name": "Гора Машук",
        "latitude": 44.059235,
        "longitude": 43.096105,
        "photoUrl": "https://avatars.dzeninfra.ru/get-zen_doc/5219020/pub_63d4a957b4049d7b6b6e7529_63d4aa4d4a535f2d8ddda258/scale_1200"
    },
    {
        "name": "Беседка \"Эолова арфа\"",
        "latitude": 44.041199,
        "longitude": 43.086399,
        "photoUrl": "https://avatars.dzeninfra.ru/get-zen_doc/5352530/pub_60d71656a487630a3f26d688_6231adfa80731f2afb2b7e80/scale_1200"
    },
    {
        "name": "Канатная дорога Кисловодска",
        "latitude": 43.898029,
        "longitude": 42.737025,
        "photoUrl": "https://avatars.dzeninfra.ru/get-zen_brief/6216620/pub_63495a2502176506fcf90510_63495b4f797f7056c431cfc6/scale_1200"
    },
    {
        "name": "Гора Змейка",
        "latitude": 44.181067,
        "longitude": 43.100203,
        "photoUrl": "https://totrip.info/assets/mineralnye-vody/dostoprimechatelnosty/zmeyka/gorazmeyka.jpg"
    },




{
  "type": "node",
  "id": 5628630221,
  "latitude": 44.5879408,
  "longitude": 39.0711846,
  "photoUrl": "https://sun9-69.userapi.com/impf/c831508/v831508968/11b3a9/94dn7IkMhYo.jpg?size=320x213&quality=96&sign=716061c2c0d9229a8033984025a48c50&c_uniq_tag=kZdOZrJ0m7i8W6ku7a60DZ06O0jKCBzDrfsXp-eNG98&type=album",
  "name": "панорама на горы и Краснодар",
  "tags": {
   
    "tourism": "viewpoint"
  }
},

{
  "type": "node",
  "id": 9724247617,
  "latitude": 44.6180379,
  "longitude": 39.0910676,
  "photoUrl": "https://otdih.nakubani.ru/m/catalogBig/634fe3daf8dbe021ce04dd57/",
  "name": "Точка обзора у подъемника",
  "tags": {
    
    "tourism": "viewpoint"
  }
},


{
  "type": "node",
  "id": 11893724469,
  "latitude": 44.600583,
  "longitude": 39.105949,
  "name": "Смотровая площадка",
  "photoUrl": "https://sun9-7.userapi.com/impg/qV4GUS6uxJNbdgoIxzKSm54BmAbQcWIAcCbFEw/hTTL69_n_is.jpg?size=320x240&quality=96&sign=5053b0401807a7acec2fc085745c0656&c_uniq_tag=W5z3P9E_7bxrgCjNNSdS-jhKgc10pUA3n_5mJtvFwNU&type=album",
  "tags": {
    
    "tourism": "viewpoint"
  }
},
	{
    "name": "Астраханский кремль",
    "latitude": 46.34930643371145,
    "longitude": 48.03215928600924,
    "photoUrl": "https://must-see.top/wp-content/uploads/2018/10/astrahanskij-kreml-700x453.jpg"
  },
  {
    "name": "Гора Большое Богдо",
    "latitude": 48.143350749402366,
    "longitude": 46.85544436461426,
    "photoUrl": "https://must-see.top/wp-content/uploads/2018/10/gora-bolshoe-bogdo-700x466.jpg"
  },
  {
    "name": "Бархан «Большой Брат»",
    "latitude": 46.431027425092765,
    "longitude": 47.49557632648953,
    "photoUrl": "https://must-see.top/wp-content/uploads/2018/10/barhan-bolshoj-brat-700x463.jpg"
  },
  {
    "name": "Астраханский вододелитель",
    "latitude": 46.70869391185858,
    "longitude": 47.848891616140605,
    "photoUrl": "https://must-see.top/wp-content/uploads/2018/10/astrahanskij-vododelitel-700x463.jpg"
  },
  {
    "name": "Замок «Ласточкино гнездо»",
    "latitude": 44.43051849720389,
    "longitude": 34.128430189898125,
    "photoUrl": "https://must-see.top/wp-content/uploads/2022/03/Zamok-Lastochkino-gnezdo.jpg"
  },
  {
    "name": "Крымский мост",
    "latitude": 45.26478636403207,
    "longitude": 36.55259875347067,
    "photoUrl": "https://must-see.top/wp-content/uploads/2022/03/Krymskiy-most-1536x1024.jpg"
  },
  {
    "name": "Мыс Фиолент",
    "latitude": 44.498278,
    "longitude": 33.488944,
    "photoUrl": "https://must-see.top/wp-content/uploads/2022/03/Mys-Fiolent-1536x1024.jpeg"
  },
  {
    "name": "Золотые ворота Кара-Дага",
    "latitude": 44.914590977875726,
    "longitude": 35.23143905341049,
    "photoUrl": "https://must-see.top/wp-content/uploads/2022/03/Zolotye-vorota-Kara-Daga-1536x1020.jpg"
  },
  {
    "name": "Большой каньон Крыма",
    "latitude": 44.52888104808974,
    "longitude": 34.02009559757406,
    "photoUrl": "https://must-see.top/wp-content/uploads/2022/03/Bolshoy-kanon-Kryma-1536x1024.jpg"
  },
  {
    "name": "Винный завод «Массандра»",
    "latitude": 44.5103045310038,
    "longitude": 34.18832315410959,
    "photoUrl": "https://must-see.top/wp-content/uploads/2022/03/Vinnyy-zavod-Massandra-1536x1024.jpg"
  },
  {
    "name": "Гора Клементьева",
    "latitude": 45.01101298813807,
    "longitude": 35.24843928670169,
    "photoUrl": "https://must-see.top/wp-content/uploads/2022/03/Gora-Klementeva-1536x1024.jpg"
  },
  {
    "name": "Балаклавская бухта",
    "latitude": 44.497312,
    "longitude": 33.597665,
    "photoUrl": "https://must-see.top/wp-content/uploads/2022/03/Balaklavskaya-buhta.jpg"
  },
  {
    "name": "Белая скала Ак-Кая",
    "latitude": 45.09927311691332,
    "longitude": 34.63551510968695,
    "photoUrl": "https://must-see.top/wp-content/uploads/2022/03/Belaya-skala-Ak-Kaya-1536x1021.jpg"
  },
  {
  "type": "node",
  "id": 827645846,
  "latitude": 47.1142447,
  "longitude": 39.4274345,
  "photoUrl": "https://avatars.dzeninfra.ru/get-zen_doc/271828/pub_654de1acce46c81db717cd61_654de29434bcdd26763e3d6c/scale_1200",
  "name": "Беседка",
  "tags": {
    
    "tourism": "viewpoint"
  }
},

{
  "type": "node",
  "id": 2339344258,
  "latitude": 47.2885961,
  "longitude": 39.1562079,
  "name": "Смотровая площадка",
   "photoUrl": "https://n1s1.hsmedia.ru/f5/e9/25/f5e9253672d0c2c57f1fc30111bde754/656x437_1:5693_fa1e3f876616d7d37419b78731bc7944@1920x1277_0xfNLE4Sxq_0110804417128580762.jpg.webp",
  "tags": {
    "tourism": "viewpoint"
  }
},
{
  "type": "node",
  "id": 3854891657,
  "latitude": 47.3853125,
  "longitude": 38.7481396,
  "photoUrl": "https://ribak-podvox.ru/wp-content/uploads/2022/05/rybalka-v-rostovskoj-oblasti-s-berega-platnye-prudy-afd8c77.jpg",
  "name": "Дарьевский пруд",
  "tags": {
    
    "tourism": "viewpoint"
  }
},

{
  "type": "node",
  "id": 4956567714,
  "latitude": 47.2178930,
  "longitude": 39.7253104,
  "photoUrl": "https://avatars.dzeninfra.ru/get-zen_doc/4368340/pub_60489922d9fb5535c699b55c_6048a846d9fb5535c6baf3ec/scale_1200",
  "name": "Смотровая площадка",
  "tags": {
    "tourism": "viewpoint"
  }
},



{
  "type": "node",
  "id": 6649620589,
  "latitude": 47.1159886,
  "longitude": 39.4218795,
  "photoUrl": "http://virtruss.ru/wp-content/uploads/2022/11/%D0%9A%D1%80%D0%B5%D0%BF%D0%BE%D1%81%D1%82%D0%BD%D0%BE%D0%B9_%D0%B2%D0%B0%D0%BB_%D0%90%D0%B7%D0%BE%D0%B21..jpg",
  "name": "Турецкий вал",
  "tags": {
    "tourism": "viewpoint"
  }
},

{
  "type": "node",
  "id": 7434068985,
  "latitude": 47.2132118,
  "longitude": 39.6928706,
  "photoUrl": "https://kg-rostov.ru/upload/iblock/eb8/eb8a23899d24bdb85282f5efe32c513f.jpg",
  "name": "Стачке 1902 года",
  "tags": {
    "tourism": "viewpoint"
  }
},

{
  "type": "node",
  "id": 7548658785,
  "latitude": 44.5672084,
  "longitude": 38.1294584,
  "name": "Чайная Полка",
  "photoUrl": "https://sun9-33.userapi.com/c845221/v845221961/20bf0c/PAcPIhUalrc.jpg",
  "tags": {
    "description": "Красивая обзорная площадка с видом на бухту Геленджика и пос. Адербиевка. Также можно наблюдать село Дивноморское. Место популяризировано группой GoGelenGo, т.к. корни и название его идут от основания группы.",
    
    "name:en": "Tea Shelf",
    "tourism": "viewpoint"
  }
},
{
  "type": "node",
  "id": 7867446209,
  "latitude": 44.7431609,
  "longitude": 38.5729353,
  "photoUrl": "https://static.tildacdn.com/tild6465-3961-4433-b939-376561633235/2020-07-04_13-20-41.JPG",
  "name": "Смотровая на Собер-Баш \"Стул\"",
  "tags": {
    "direction": "270",
    
    
    "tourism": "viewpoint"
  }
},


{
  "type": "node",
  "id": 8690417517,
  "latitude": 44.3251356,
  "longitude": 38.6332610,
  "name": "Красивый вид",
  "photoUrl": "https://avatars.dzeninfra.ru/get-zen_doc/9278169/pub_640031020162834f3d60debd_6404827ceec1806a6897caf0/scale_1200",
  "tags": {
    
    "tourism": "viewpoint"
  }
},
{
  "type": "node",
  "id": 8692618019,
  "latitude": 44.6518655,
  "longitude": 38.6144213,
  "name": "Планческие скалы",
  "photoUrl": "https://st21.styapokupayu.ru/images/localized/000/066/557_original.jpg",
  "tags": {
   
    "tourism": "viewpoint"
  }
},



{
  "type": "node",
  "id": 8829584217,
  "latitude": 44.8573880,
  "longitude": 37.3353835,
  "name": "800 ступенек",
  "photoUrl": "https://titam.ru/wp-content/uploads/2022/04/%D0%9B%D0%B5%D1%81%D1%82%D0%BD%D0%B8%D1%86%D0%B0-800-%D1%81%D1%82%D1%83%D0%BF%D0%B5%D0%BD%D0%B5%D0%B9-%D0%B2-%D0%90%D0%BD%D0%B0%D0%BF%D0%B5-%D0%A1%D1%83%D0%BF%D1%81%D0%B5%D1%85-2-768x512.jpg",
  "tags": {
    
    "tourism": "viewpoint"
  }
},
{
  "type": "node",
  "id": 8829584317,
  "latitude": 44.8490018,
  "longitude": 37.3408483,
  "name": "400 ступенек",
  "photoUrl": "https://xn-----6kcacae0aucmavhzrfs9afme4b.xn--p1acf/wp-content/uploads/2023/08/1667833593_4-na-dache-pro-p-anapa-400-stupenek-k-moryu-foto-4-600x400.jpg",
  "tags": {

    "tourism": "viewpoint"
  }
},
{
  "type": "node",
  "id": 8829651417,
  "latitude": 44.8418178,
  "longitude": 37.3511197,
  "photoUrl": "https://i0.u-mama.ru/5ea/927/a4c/90018115b837b3a0d76fbcf957d65f1b.jpg",
  "name": "Метеостанция",
  "tags": {
    
    "tourism": "viewpoint"
  }
},

{
  "type": "node",
  "id": 8848944217,
  "latitude": 44.8674338,
  "longitude": 37.3219869,
  "photoUrl": "https://avatars.dzeninfra.ru/get-zen_doc/8220767/pub_6417f91932057560b21c7ec9_6419486a15277b3f9d8c7072/scale_1200",
  "name": "Лестница к морю",
  "tags": {
   
    "tourism": "viewpoint"
  }
},

{
  "type": "node",
  "id": 9126563886,
  "latitude": 44.2156851,
  "longitude": 38.8517398,
  "name": "Новый капитанскаий мостик",
  "photoUrl": "https://avatars.dzeninfra.ru/get-zen_doc/5323197/pub_6127e190e1081e1979bb7443_6127e8e51ce1a96948d2c17a/scale_1200",
  "tags": {
    "amenity": "bench",

    "tourism": "viewpoint"
  }
},
{
  "type": "node",
  "id": 9126633152,
  "latitude": 44.2183573,
  "longitude": 38.8520118,
  "name": "Капитанский мостик",
  "photoUrl": "https://avatars.dzeninfra.ru/get-zen_doc/5323197/pub_6127e190e1081e1979bb7443_6127e8e51ce1a96948d2c17a/scale_1200",
  "tags": {
   
    "tourism": "viewpoint"
  }
},

{
  "type": "node",
  "id": 9404299341,
  "latitude": 44.4772878,
  "longitude": 38.4068932,
  "name": "Вид на Пшаду",
  "photoUrl":"https://upload.wikimedia.org/wikipedia/commons/thumb/c/c2/%D0%92%D0%B8%D0%B4_%D0%BD%D0%B0_%D0%9F%D1%88%D0%B0%D0%B4%D1%83.jpg/800px-%D0%92%D0%B8%D0%B4_%D0%BD%D0%B0_%D0%9F%D1%88%D0%B0%D0%B4%D1%83.jpg",
  "tags": {
    "direction": "246",
    
    "tourism": "viewpoint"
  }
},

{
  "type": "node",
  "id": 9881578229,
  "latitude": 44.5898345,
  "longitude": 37.9540449,
  "name": "Смотровая на УТЮГ",
  "photoUrl": "https://sun9-16.userapi.com/impg/RWHlWLC-p20k-OUsVgv-o9I1h98iu5nd5ItdqA/XK_N1y1EmJ0.jpg?size=678x807&quality=95&sign=6f1c419189a4a486492c6010b6453b31&c_uniq_tag=OPNg2AVRN-ou9szuUs3dAkI9rLK8H4MYSNYHa68tEhM&type=album",
  "tags": {
    
    "tourism": "viewpoint"
  }
},


{
  "type": "node",
  "id": 10115772731,
  "latitude": 44.5820410,
  "longitude": 38.0881170,
  "name": "Вид на весь Геленджик",
  "photoUrl": "https://56.img.avito.st/image/1/LQDwmbaBgemGPHPvpu0hUQI6he9SOIHvNVmF74Y8c-9GPo3tRjiBrQ",
  "tags": {
    
    "tourism": "viewpoint"
  }
},


{
  "type": "node",
  "id": 10902153305,
  "latitude": 44.3560850,
  "longitude": 38.5389206,
  "name": "Гора Ёжик",
  "photoUrl": "https://i.ytimg.com/vi/eXyHMHgie6o/maxresdefault.jpg",
  "tags": {

    "tourism": "viewpoint"
  }
},
{
  "type": "node",
  "id": 10907816505,
  "latitude": 44.3732942,
  "longitude": 38.5133846,
  "name": "Вид на щель",
  "photoUrl": "https://i.ytimg.com/vi/S0i6WcwntFQ/maxresdefault.jpg",
  "tags": {
    
    "tourism": "viewpoint"
  }
},


{
  "type": "node",
  "id": 11039561805,
  "latitude": 44.3867162,
  "longitude": 38.6241808, 
  "name": "Гора Гебеус 735 метров",
 "photoUrl": "https://avatars.mds.yandex.net/get-altay/3932123/2a00000176ce090a88a6f8463979083c888f/XXL",
  "tags": {

    "tourism": "viewpoint"
  }
},

{
  "type": "node",
  "id": 11065669505,
  "latitude": 44.6774270,
  "longitude": 37.5635384,
  "name": "Смотровая площадка Дюрсо",
  "photoUrl": "https://azur.ru/data/newfotos1/big/30/116730.jpg",
  "tags": {
   
    "tourism": "viewpoint"
  }
},

{
  "type": "node",
  "id": 11112086506,
  "latitude": 44.3820302,
  "longitude": 38.4319001,
  "name": "Смотровая площадка",
  "photoUrl": "https://wikiway.com/upload/hl-photo/47c/betta_21.jpg",
  "tags": {
   
    "tourism": "viewpoint"
  }
},

{
  "type": "node",
  "id": 11688057769,
  "latitude": 44.5615848,
  "longitude": 38.2577329,
  "name": "Группа Дольменов Жане 2",
  "photoUrl": "https://xcourse.me/images/excursions/1223/1560596210_%D0%B4%D0%BE%D0%BB%D1%8C%D0%BC%D0%B5%D0%BD_%D0%96%D0%B0%D0%BD%D0%B5.jpg",
  "tags": {
    
    "tourism": "viewpoint"
  }
},

{
  "type": "node",
  "id": 11832930469,
  "latitude": 45.0573376,
  "longitude": 37.1803910,
  "name": "От моря и до степей",
  "photoUrl": "https://avatars.mds.yandex.net/get-altay/6197788/2a000001832d7641a9995e13982ac98154cd/XXXL",
  "tags": {
    
    "tourism": "viewpoint"
  }
},
{
  "type": "node",
  "id": 11861764769,
  "latitude": 44.5812167,
  "longitude": 37.9657963,
  "name": "Спуск к морю 278 ступеней",
  "photoUrl": "https://avatars.mds.yandex.net/get-altay/12595784/2a0000018f75c50ad4a885973343dbcbbab5/XXXL",
  "tags": {
    
    "tourism": "viewpoint"
  }
},

{
  "type": "node",
  "id": 11871573370,
  "latitude": 44.5114860,
  "longitude": 38.4864704,
  "name": "Гора Облего 747 метров",
  "photoUrl": "https://avatars.mds.yandex.net/get-altay/8093564/2a000001890fb08b40bc119e6c29a31cf2f3/XXXL",
  "tags": {
    "tourism": "viewpoint"
  }
},
{
  "type": "node",
  "id": 655242606,
  "lat": 43.5777308,
  "lon": 39.7218432,
  "tags": {
    "tourism": "viewpoint"
  }
},
{
  "type": "node",
  "id": 738618669,
  "lat": 43.5675798,
  "lon": 39.7348566,
  "tags": {
    "name": "Ротонда",
    "tourism": "viewpoint"
  }
},
{
  "type": "node",
  "id": 850083682,
  "lat": 43.6472160,
  "lon": 40.2511687,
  "tags": {
    "tourism": "viewpoint"
  }
},
{
  "type": "node",
  "id": 915444967,
  "lat": 43.5505235,
  "lon": 39.8433371,
  "tags": {
    "direction": "0-360",
    "fee": "yes",
    "man_made": "tower",
    "name": "Башня \"Ахун\"",
    "name:de": "Achunturm",
    "name:en": "Akhun tower",
    "name:ru": "Башня \"Ахун\"",
    "opening_hours": "closed",
    "tourism": "viewpoint",
    "tower:type": "observation",
    "wikidata": "Q1967356",
    "wikipedia": "ru:Ахун (гора)"
  }
},
{
  "type": "node",
  "id": 1226629724,
  "lat": 43.5879029,
  "lon": 40.0076325,
  "tags": {
    "tourism": "viewpoint"
  }
},
{
  "type": "node",
  "id": 1561321169,
  "lat": 43.7071187,
  "lon": 39.7739774,
  "tags": {
    "name": "Ореховский водопад (Снизу)",
    "name:en": "Orekhovsky waterfall",
    "tourism": "viewpoint"
  }
},
{
  "type": "node",
  "id": 1912914775,
  "lat": 43.5447510,
  "lon": 39.8790897,
  "tags": {
    "name": "Каньон \"Чёртовы ворота\"",
    "name:en": "Tcheortovy vorota canyon",
    "tourism": "viewpoint"
  }
},
{
  "type": "node",
  "id": 1914036865,
  "lat": 43.5308679,
  "lon": 39.8776815,
  "tags": {
    "tourism": "viewpoint"
  }
},
{
  "type": "node",
  "id": 2567982744,
  "lat": 43.5210918,
  "lon": 40.0845726,
  "tags": {
    "tourism": "viewpoint"
  }
},
{
  "type": "node",
  "id": 2568004442,
  "lat": 43.5689415,
  "lon": 40.1143829,
  "tags": {
    "tourism": "viewpoint"
  }
},
{
  "type": "node",
  "id": 2862485637,
  "lat": 43.5600935,
  "lon": 39.8237065,
  "tags": {
    "tourism": "viewpoint"
  }
},
{
  "type": "node",
  "id": 2946055557,
  "lat": 43.3647103,
  "lon": 40.1065325,
  "tags": {
    "name": "Белые скалы",
    "tourism": "viewpoint"
  }
},
{
  "type": "node",
  "id": 2969903651,
  "lat": 43.7195905,
  "lon": 40.2082837,
  "tags": {
    "tourism": "viewpoint"
  }
},
{
  "type": "node",
  "id": 2969903719,
  "lat": 43.7187828,
  "lon": 40.2040802,
  "tags": {
    "tourism": "viewpoint"
  }
},
{
  "type": "node",
  "id": 2971963453,
  "lat": 43.3661771,
  "lon": 40.1039467,
  "tags": {
    "name": "Белые скалы",
    "tourism": "viewpoint"
  }
},
{
  "type": "node",
  "id": 3046900163,
  "lat": 43.5761556,
  "lon": 39.7442231,
  "tags": {
    "tourism": "viewpoint"
  }
},
{
  "type": "node",
  "id": 3457587521,
  "lat": 43.5697128,
  "lon": 39.7967095,
  "tags": {
    "name": "Обзорная поляна",
    "tourism": "viewpoint"
  }
},
{
  "type": "node",
  "id": 3499497491,
  "lat": 43.5630302,
  "lon": 39.8987507,
  "tags": {
    "tourism": "viewpoint"
  }
},
{
  "type": "node",
  "id": 3544715096,
  "lat": 43.5194853,
  "lon": 40.0003749,
  "tags": {
    "tourism": "viewpoint"
  }
},
{
  "type": "node",
  "id": 3613156013,
  "lat": 43.5566081,
  "lon": 39.8219145,
  "tags": {
    "tourism": "viewpoint",
    "website": "https://kuula.co/share/7lDY2?fs=1&zoom=1"
  }
},
{
  "type": "node",
  "id": 3640382462,
  "lat": 43.5906421,
  "lon": 39.7147984,
  "tags": {
    "description": "Вид на часть представления",
    "fee": "no",
    "name": "Дельфинарий",
    "tourism": "viewpoint"
  }
},
{
  "type": "node",
  "id": 3651502096,
  "lat": 43.7018090,
  "lon": 40.1590681,
  "tags": {
    "name": "Греческий обзор",
    "tourism": "viewpoint"
  }
},
{
  "type": "node",
  "id": 3721708350,
  "lat": 43.6462615,
  "lon": 39.7775861,
  "tags": {
    "tourism": "viewpoint"
  }
},
{
  "type": "node",
  "id": 4063702786,
  "lat": 43.5273080,
  "lon": 39.9996217,
  "tags": {
    "tourism": "viewpoint"
  }
},
{
  "type": "node",
  "id": 4140990691,
  "lat": 43.5767164,
  "lon": 39.7232699,
  "tags": {
    "tourism": "viewpoint"
  }
},
{
  "type": "node",
  "id": 4270638148,
  "lat": 43.7265663,
  "lon": 40.1689805,
  "tags": {
    "name": "Смотровая Дальняя",
    "tourism": "viewpoint"
  }
},
{
  "type": "node",
  "id": 4296237295,
  "lat": 43.7016810,
  "lon": 40.2218776,
  "tags": {
    "tourism": "viewpoint"
  }
},
{
  "type": "node",
  "id": 4316709572,
  "lat": 43.6784629,
  "lon": 39.7810819,
  "tags": {
    "height": "11",
    "tourism": "viewpoint",
    "waterway": "waterfall"
  }
},
{
  "type": "node",
  "id": 4331452393,
  "lat": 43.6028708,
  "lon": 39.7315765,
  "tags": {
    "tourism": "viewpoint"
  }
},
{
  "type": "node",
  "id": 4373342095,
  "lat": 43.7011232,
  "lon": 39.6050813,
  "tags": {
    "tourism": "viewpoint"
  }
},
{
  "type": "node",
  "id": 4405966489,
  "lat": 43.5757311,
  "lon": 39.7240715,
  "tags": {
    "tourism": "viewpoint"
  }
},
{
  "type": "node",
  "id": 4491084831,
  "lat": 43.6691394,
  "lon": 40.2616695,
  "tags": {
    "tourism": "viewpoint"
  }
},
{
  "type": "node",
  "id": 4498044628,
  "lat": 43.5588315,
  "lon": 39.8224334,
  "tags": {
    "tourism": "viewpoint"
  }
},
{
  "type": "node",
  "id": 4498054344,
  "lat": 43.5591662,
  "lon": 39.8227407,
  "tags": {
    "tourism": "viewpoint"
  }
},
{
  "type": "node",
  "id": 4498991436,
  "lat": 43.5573591,
  "lon": 39.8219953,
  "tags": {
    "tourism": "viewpoint"
  }
},
{
  "type": "node",
  "id": 4566863025,
  "lat": 43.6968525,
  "lon": 40.1892357,
  "tags": {
    "tourism": "viewpoint"
  }
},
{
  "type": "node",
  "id": 4594830362,
  "lat": 43.5335050,
  "lon": 39.8793456,
  "tags": {
    "tourism": "viewpoint"
  }
},
{
  "type": "node",
  "id": 4594845912,
  "lat": 43.5331483,
  "lon": 39.8791422,
  "tags": {
    "tourism": "viewpoint"
  }
},
{
  "type": "node",
  "id": 4594846566,
  "lat": 43.5365936,
  "lon": 39.8821484,
  "tags": {
    "tourism": "viewpoint"
  }
},
{
  "type": "node",
  "id": 4745979047,
  "lat": 43.6956873,
  "lon": 39.8549748,
  "tags": {
    "name": "Скала белая",
    "tourism": "viewpoint"
  }
},
{
  "type": "node",
  "id": 4835368665,
  "lat": 43.6733123,
  "lon": 40.1827864,
  "tags": {
    "direction": "E",
    "name": "Кругозор Ефремова",
    "tourism": "viewpoint"
  }
},
{
  "type": "node",
  "id": 4836489094,
  "lat": 43.5257695,
  "lon": 40.0047006,
  "tags": {
    "tourism": "viewpoint"
  }
},
{
  "type": "node",
  "id": 4844075988,
  "lat": 43.6865681,
  "lon": 40.2788265,
  "tags": {
    "tourism": "viewpoint"
  }
},
{
  "type": "node",
  "id": 4845330658,
  "lat": 43.7741404,
  "lon": 40.0557205,
  "tags": {
    "name": "Смотрова Ац-Ху",
    "tourism": "viewpoint"
  }
},
{
  "type": "node",
  "id": 5039673637,
  "lat": 43.4822708,
  "lon": 39.9099478,
  "tags": {
    "tourism": "viewpoint"
  }
},
{
  "type": "node",
  "id": 5076825128,
  "lat": 43.6882076,
  "lon": 40.2345677,
  "tags": {
    "tourism": "viewpoint"
  }
},
{
  "type": "node",
  "id": 5078558645,
  "lat": 43.6418810,
  "lon": 40.2380001,
  "tags": {
    "tourism": "viewpoint"
  }
},
{
  "type": "node",
  "id": 5078558646,
  "lat": 43.6418442,
  "lon": 40.2388276,
  "tags": {
    "tourism": "viewpoint"
  }
},
{
  "type": "node",
  "id": 5078558672,
  "lat": 43.6437532,
  "lon": 40.2627973,
  "tags": {
    "tourism": "viewpoint"
  }
},
{
  "type": "node",
  "id": 5078558673,
  "lat": 43.6441682,
  "lon": 40.2623884,
  "tags": {
    "tourism": "viewpoint"
  }
},
{
  "type": "node",
  "id": 5081707480,
  "lat": 43.6890638,
  "lon": 40.2166599,
  "tags": {
    "tourism": "viewpoint"
  }
},
{
  "type": "node",
  "id": 5081707628,
  "lat": 43.6893118,
  "lon": 40.2086893,
  "tags": {
    "tourism": "viewpoint"
  }
},
{
  "type": "node",
  "id": 5094848805,
  "lat": 43.6860193,
  "lon": 40.2083449,
  "tags": {
    "tourism": "viewpoint"
  }
},
{
  "type": "node",
  "id": 5095338986,
  "lat": 43.6716266,
  "lon": 40.2879189,
  "tags": {
    "tourism": "viewpoint"
  }
},
{
  "type": "node",
  "id": 5095680024,
  "lat": 43.6812681,
  "lon": 40.2761598,
  "tags": {
    "tourism": "viewpoint"
  }
},
{
  "type": "node",
  "id": 5161250817,
  "lat": 43.6707534,
  "lon": 40.1841801,
  "tags": {
    "direction": "E",
    "tourism": "viewpoint"
  }
},
{
  "type": "node",
  "id": 5168558790,
  "lat": 43.6879377,
  "lon": 40.2054153,
  "tags": {
    "tourism": "viewpoint"
  }
},
{
  "type": "node",
  "id": 5212812924,
  "lat": 43.5508274,
  "lon": 39.9442719,
  "tags": {
    "description": "Cмотровая площадка на Cухой каньон",
    "tourism": "viewpoint"
  }
},
{
  "type": "node",
  "id": 5238226763,
  "lat": 43.5604336,
  "lon": 39.9006333,
  "tags": {
    "tourism": "viewpoint"
  }
},
{
  "type": "node",
  "id": 5238249135,
  "lat": 43.5616432,
  "lon": 39.8989299,
  "tags": {
    "tourism": "viewpoint"
  }
},
{
  "type": "node",
  "id": 5271242543,
  "lat": 43.5380993,
  "lon": 39.8039786,
  "tags": {
    "tourism": "viewpoint"
  }
},
{
  "type": "node",
  "id": 5328033827,
  "lat": 43.6691094,
  "lon": 40.2623069,
  "tags": {
    "tourism": "viewpoint"
  }
},
{
  "type": "node",
  "id": 5475330778,
  "lat": 43.6845732,
  "lon": 40.2218109,
  "tags": {
    "direction": "108",
    "tourism": "viewpoint"
  }
},
{
  "type": "node",
  "id": 5630131931,
  "lat": 43.5260997,
  "lon": 39.8904531,
  "tags": {
    "tourism": "viewpoint"
  }
},
{
  "type": "node",
  "id": 5671565521,
  "lat": 43.5737416,
  "lon": 39.7439714,
  "tags": {
    "tourism": "viewpoint"
  }
},
{
  "type": "node",
  "id": 5688872375,
  "lat": 43.7150961,
  "lon": 40.1419824,
  "tags": {
    "tourism": "viewpoint"
  }
},
{
  "type": "node",
  "id": 5749364903,
  "lat": 43.7074675,
  "lon": 39.7738874,
  "tags": {
    "name": "Ореховский водопад (Сверху)",
    "name:en": "Orekhovsky waterfall",
    "tourism": "viewpoint"
  }
},
{
  "type": "node",
  "id": 5793806003,
  "lat": 43.5614245,
  "lon": 39.8987898,
  "tags": {
    "tourism": "viewpoint",
    "website": "https://kuula.co/share/7Yrvd?fs=1&zoom=1"
  }
},
{
  "type": "node",
  "id": 5841210837,
  "lat": 43.6681055,
  "lon": 40.2998757,
  "tags": {
    "tourism": "viewpoint"
  }
},
{
  "type": "node",
  "id": 5882292009,
  "lat": 43.4491959,
  "lon": 39.9294046,
  "tags": {
    "direction": "90-270",
    "tourism": "viewpoint"
  }
},
{
  "type": "node",
  "id": 5884468493,
  "lat": 43.6427339,
  "lon": 40.2351269,
  "tags": {
    "tourism": "viewpoint"
  }
},